     3.02           OBSERVATION DATA    M: Mixed            RINEX VERSION / TYPE
RTKCONV 2.4.3 b33                       20200102 024841 UTC PGM / RUN BY / DATE 
log: I:\FTPDIR\TEST_DATA\data_dynamic_SA_20200101\forward\  COMMENT             
format: RINEX                                               COMMENT             
                                                            MARKER NAME         
                                                            MARKER NUMBER       
                                                            MARKER TYPE         
                                                            OBSERVER / AGENCY   
                                                            REC # / TYPE / VERS 
                                                            ANT # / TYPE        
        0.0000        0.0000        0.0000                  APPROX POSITION XYZ 
        0.0000        0.0000        0.0000                  ANTENNA: DELTA H/E/N
G    8 C1C L1C D1C S1C C2L L2L D2L S2L                      SYS / # / OBS TYPES 
R    8 C1C L1C D1C S1C C2C L2C D2C S2C                      SYS / # / OBS TYPES 
  2020     1     1    22    15   41.9880000     GPS         TIME OF FIRST OBS   
  2020     1     1    22    53   59.9890000     GPS         TIME OF LAST OBS    
G                                                           SYS / PHASE SHIFT   
R                                                           SYS / PHASE SHIFT   
  0                                                         GLONASS SLOT / FRQ #
 C1C    0.000 C1P    0.000 C2C    0.000 C2P    0.000        GLONASS COD/PHS/BIS 
                                                            END OF HEADER       
> 2020  1  1 22 15 41.9880000  0  8                     
G27  19652189.573   103272955.662        1784.985          42.000    19652186.555    80472422.883        1390.989          42.000  
G 7  18422664.141    96811751.987        1420.470          50.000    18422658.762    75437708.971        1106.804          46.000  
G 9  16505255.477    86735701.753        -881.880          51.000    16505251.408    67586246.670        -687.284          49.000  
R 9  16025627.685    85575956.957       -2922.616          53.000    16025626.530    66559075.908       -2273.192          51.000  
R11  19430143.430   103828798.631        2887.024          48.000    19430143.960    80755751.343        2245.334          42.000  
R 8  15640856.661    83756076.876        -974.920          51.000    15640854.724    65143607.647        -758.251          50.000  
G30  20989172.724   110298843.483        2357.069          34.000    20989177.240    85947103.0391       1836.358          33.000  
R 1  17509846.912    93600167.900        2293.599          48.000    17509848.604    72800137.292        1784.026          43.000  
> 2020  1  1 22 15 42.9880000  0  8                     
G27  19651849.917   103271171.120        1784.570          42.000    19651847.012    80471032.319        1390.760          42.000  
G 7  18422393.836    96810331.887        1420.171          50.000    18422388.437    75436602.401        1106.554          46.000  
G 9  16505423.332    86736584.370        -882.823          51.000    16505419.357    67586934.420        -687.972          49.000  
R 9  16026175.074    85578880.075       -2923.186          53.000    16026173.971    66561349.445       -2273.636          51.000  
R11  19429603.115   103825912.002        2886.601          48.000    19429603.769    80753506.188        2245.321          42.000  
R 8  15641038.700    83757052.446        -975.824          51.000    15641036.838    65144366.422        -759.013          50.000  
G30  20988724.175   110296486.489        2357.075          34.000    20988729.236    85945266.436        1836.391          33.000  
R 1  17509417.886    93597874.720        2293.071          48.000    17509419.606    72798353.714        1783.460          43.000  
> 2020  1  1 22 15 43.9880000  0  8                     
G27  19651510.372   103269386.904        1783.945          42.000    19651507.552    80469642.030        1390.266          42.000  
G 7  18422123.650    96808911.946        1419.765          50.000    18422118.171    75435495.947        1106.376          46.000  
G 9  16505591.416    86737467.458        -883.406          51.000    16505587.489    67587622.543        -688.443          49.000  
R 9  16026722.543    85581803.602       -2923.821          53.000    16026721.407    66563623.297       -2274.027          51.000  
R11  19429063.016   103823025.472        2886.273          48.000    19429063.569    80751261.116        2244.861          42.000  
R 8  15641220.918    83758028.799        -976.873          51.000    15641219.227    65145125.805        -759.761          50.000  
G30  20988275.733   110294129.536        2356.642          34.000    20988281.040    85943429.854        1835.755          33.000  
R 1  17508988.981    93595581.998        2292.379          48.000    17508990.759    72796570.483        1782.941          43.000  
> 2020  1  1 22 15 44.9880000  0  8                     
G27  19651171.018   103267603.313        1783.422          42.000    19651168.109    80468252.219        1389.927          42.000  
G 7  18421853.559    96807492.442        1419.488          50.000    18421848.037    75434389.851        1106.008          46.000  
G 9  16505759.658    86738351.343        -884.200          52.000    16505755.703    67588311.278        -688.992          49.000  
R 9  16027270.154    85584727.829       -2924.477          53.000    16027269.085    66565897.700       -2274.587          51.000  
R11  19428522.914   103820139.376        2886.144          48.000    19428523.464    80749016.370        2244.707          42.000  
R 8  15641403.424    83759006.223        -977.870          51.000    15641401.723    65145886.024        -760.479          50.000  
G30  20987827.381   110291772.834        2356.698          35.000    20987832.633    85941593.439        1836.364          33.000  
R 1  17508560.222    93593290.050        2291.482          48.000    17508561.978    72794787.836        1782.626          43.000  
> 2020  1  1 22 15 45.9880000  0  8                     
G27  19650831.746   103265820.361        1782.640          42.000    19650828.664    80466862.915        1388.998          42.000  
G 7  18421583.532    96806073.395        1418.852          50.000    18421577.942    75433284.093        1105.594          46.000  
G 9  16505928.025    86739236.002        -885.056          51.000    16505924.091    67589000.622        -689.708          49.000  
R 9  16027817.816    85587652.806       -2925.240          52.000    16027816.882    66568172.684       -2275.243          52.000  
R11  19427982.923   103817253.744        2885.472          48.000    19427983.322    80746772.004        2244.180          42.000  
R 8  15641586.280    83759984.718        -978.945          51.000    15641584.551    65146647.076        -761.386          50.000  
G30  20987378.981   110289416.437        2356.362          34.000    20987384.337    85939757.263        1836.101          33.000  
R 1  17508131.646    93590998.830        2290.764          48.000    17508133.448    72793005.797        1781.697          43.000  
> 2020  1  1 22 15 46.9880000  0  8                     
G27  19650492.570   103264037.753        1782.549          42.000    19650489.589    80465473.871        1389.026          42.000  
G 7  18421313.483    96804654.515        1418.978          50.000    18421308.076    75432178.479        1105.560          46.000  
G 9  16506096.436    86740121.178        -885.292          51.000    16506092.467    67589690.376        -689.919          49.000  
R 9  16028365.659    85590578.243       -2925.534          53.000    16028364.738    66570448.018       -2275.398          52.000  
R11  19427442.952   103814368.260        2885.538          48.000    19427443.240    80744527.748        2244.042          41.000  
R 8  15641769.174    83760964.029        -979.594          51.000    15641767.399    65147408.765        -761.878          50.000  
G30  20986930.620   110287060.059        2356.985          34.000    20986935.825    85937921.133        1836.622          33.000  
R 1  17507703.150    93588708.104        2290.547          48.000    17507705.001    72791224.110        1781.721          43.000  
> 2020  1  1 22 15 47.9880000  0  8                     
G27  19650153.291   103262255.450        1781.799          42.000    19650150.419    80464085.059        1388.567          42.000  
G 7  18421043.445    96803235.742        1418.544          50.000    18421038.084    75431072.940        1105.405          45.000  
G 9  16506264.947    86741006.802        -886.114          52.000    16506261.043    67590380.469        -690.490          49.000  
R 9  16028913.607    85593504.052       -2926.079          52.000    16028912.610    66572723.641       -2275.783          52.000  
R11  19426903.069   103811482.837        2885.250          48.000    19426903.228    80742283.531        2244.179          41.000  
R 8  15641952.234    83761944.109        -980.673          52.000    15641950.341    65148171.044        -762.660          50.000  
G30  20986482.292   110284703.624        2356.304          34.000    20986487.290    85936084.935        1836.661          33.000  
R 1  17507274.703    93586417.769        2290.023          48.000    17507276.433    72789442.748        1781.143          43.000  
> 2020  1  1 22 15 48.9880000  0  8                     
G27  19649814.310   103260473.599        1781.022          41.000    19649811.281    80462696.601        1388.085          41.000  
G 7  18420773.596    96801817.248        1417.703          49.000    18420768.133    75429967.633        1104.561          45.000  
G 9  16506433.599    86741893.025        -887.089          51.000    16506429.697    67591071.029        -691.117          49.000  
R 9  16029461.670    85596430.409       -2927.201          51.000    16029460.658    66574999.700       -2276.749          51.000  
R11  19426363.165   103808597.662        2884.493          47.000    19426363.357    80740039.521        2243.424          41.000  
R 8  15642135.501    83762925.131        -982.109          50.000    15642133.503    65148934.066        -763.866          49.000  
G30  20986034.020   110282347.330        2355.360          34.000    20986038.863    85934248.915        1834.911          33.000  
R 1  17506846.376    93584128.028        2288.720          46.000    17506848.144    72787661.838        1780.193          43.000  
> 2020  1  1 22 15 49.9880000  0  8                     
G27  19649475.334   103258692.383        1780.620          41.000    19649472.274    80461308.653        1387.529          41.000  
G 7  18420503.785    96800399.212        1417.518          49.000    18420498.152    75428862.657        1104.441          45.000  
G 9  16506602.454    86742780.053        -887.695          51.000    16506598.494    67591762.218        -691.583          49.000  
R 9  16030009.818    85599357.520       -2927.775          52.000    16030008.844    66577276.336       -2277.128          51.000  
R11  19425823.400   103805712.940        2884.283          48.000    19425823.550    80737795.846        2243.000          41.000  
R 8  15642318.965    83763907.261        -982.982          52.000    15642316.922    65149697.948        -764.614          49.000  
G30  20985585.662   110279991.303        2355.172          34.000    20985590.600    85932413.030        1835.687          33.000  
R 1  17506418.233    93581839.028        2288.379          47.000    17506420.102    72785881.513        1779.955          43.000  
> 2020  1  1 22 15 50.9880000  0  8                     
G27  19649136.417   103256911.853        1779.879          42.000    19649133.475    80459921.228        1387.033          41.000  
G 7  18420233.959    96798981.664        1417.134          49.000    18420228.407    75427758.081        1104.157          45.000  
G 9  16506771.346    86743667.895        -888.579          51.000    16506767.505    67592454.048        -692.359          49.000  
R 9  16030557.959    85602285.392       -2928.555          52.000    16030557.127    66579553.577       -2277.760          52.000  
R11  19425283.818   103802828.706        2883.728          48.000    19425283.707    80735552.560        2242.657          41.000  
R 8  15642502.701    83764890.525        -984.112          51.000    15642500.467    65150462.710        -765.548          49.000  
G30  20985137.268   110277635.602        2355.350          35.000    20985141.930    85930577.400        1835.656          33.000  
R 1  17505990.201    93579550.832        2287.535          47.000    17505992.062    72784101.809        1779.243          44.000  
> 2020  1  1 22 15 51.9880000  0  8                     
G27  19648797.742   103255131.897        1779.642          41.000    19648794.803    80458534.253        1386.491          41.000  
G 7  18419964.305    96797564.527        1416.769          49.000    18419958.670    75426653.817        1103.981          45.000  
G 9  16506940.506    86744556.488        -889.062          51.000    16506936.571    67593146.459        -692.865          49.000  
R 9  16031106.434    85605213.937       -2929.033          52.000    16031105.627    66581831.333       -2278.175          51.000  
R11  19424744.156   103799944.842        2883.623          48.000    19424744.191    80733309.560        2242.591          41.000  
R 8  15642686.504    83765874.814        -985.001          51.000    15642684.323    65151228.261        -766.098          49.000  
G30  20984689.012   110275280.192        2355.085          34.000    20984693.407    85928742.021        1835.526          33.000  
R 1  17505562.350    93577263.332        2286.991          47.000    17505564.180    72782322.655        1778.573          43.000  
> 2020  1  1 22 15 52.9880000  0  8                     
G27  19648458.992   103253352.375        1779.384          42.000    19648456.167    80457147.610        1386.469          41.000  
G 7  18419694.641    96796147.624        1417.019          50.000    18419689.069    75425549.734        1104.126          45.000  
G 9  16507109.713    86745445.652        -889.160          52.000    16507105.620    67593839.315        -692.941          49.000  
R 9  16031655.010    85608142.984       -2929.140          53.000    16031654.126    66584109.478       -2278.210          52.000  
R11  19424204.556   103797061.174        2883.881          48.000    19424204.542    80731066.701        2243.037          41.000  
R 8  15642870.494    83766859.973        -985.403          52.000    15642868.150    65151994.497        -766.367          49.000  
G30  20984240.956   110272924.827        2355.502          35.000    20984244.847    85926906.649        1836.025          34.000  
R 1  17505134.603    93574976.367        2286.881          48.000    17505136.270    72780543.882        1779.086          44.000  
> 2020  1  1 22 15 53.9880000  0  8                     
G27  19648120.305   103251572.769        1779.516          42.000    19648117.454    80455760.908        1386.602          41.000  
G 7  18419424.984    96794730.467        1417.005          50.000    18419419.369    75424445.460        1103.974          45.000  
G 9  16507278.877    86746334.898        -889.581          52.000    16507275.016    67594532.231        -693.081          49.000  
R 9  16032203.558    85611072.070       -2929.460          53.000    16032202.606    66586387.654       -2278.433          52.000  
R11  19423664.822   103794177.259        2883.601          48.000    19423664.876    80728823.666        2242.852          42.000  
R 8  15643054.489    83767845.525        -986.159          51.000    15643052.198    65152761.040        -766.970          49.000  
G30  20983792.580   110270569.045        2355.552          35.000    20983796.551    85925071.021        1835.463          34.000  
R 1  17504706.709    93572689.428        2286.608          48.000    17504708.513    72778765.182        1778.361          44.000  
> 2020  1  1 22 15 54.9880000  0  8                     
G27  19647781.595   103249793.366        1779.308          42.000    19647778.814    80454374.339        1386.691          41.000  
G 7  18419155.259    96793313.294        1417.231          50.000    18419149.595    75423341.181        1104.105          45.000  
G 9  16507448.108    86747224.468        -889.648          52.000    16507444.304    67595225.413        -693.506          49.000  
R 9  16032752.087    85614001.386       -2929.439          52.000    16032751.152    66588666.009       -2278.437          52.000  
R11  19423125.104   103791293.324        2883.967          48.000    19423125.205    80726580.612        2242.939          42.000  
R 8  15643238.544    83768831.696        -986.395          52.000    15643236.405    65153528.063        -767.230          49.000  
G30  20983344.192   110268213.073        2356.274          35.000    20983347.970    85923235.177        1835.984          34.000  
R 1  17504278.847    93570402.764        2286.573          48.000    17504280.714    72776986.650        1778.419          44.000  
> 2020  1  1 22 15 55.9880000  0  8                     
G27  19647442.997   103248013.982        1779.366          42.000    19647440.103    80452987.807        1386.612          41.000  
G 7  18418885.563    96791895.981        1417.242          50.000    18418880.014    75422236.764        1104.383          46.000  
G 9  16507617.406    86748114.222        -889.924          52.000    16507613.593    67595918.715        -693.402          49.000  
R 9  16033300.601    85616930.852       -2929.562          52.000    16033299.818    66590944.478       -2278.494          52.000  
R11  19422585.331   103788409.248        2884.147          48.000    19422585.574    80724337.453        2243.060          42.000  
R 8  15643422.801    83769818.348        -986.942          52.000    15643420.622    65154295.457        -767.568          49.000  
G30  20982895.703   110265856.853        2356.252          35.000    20982899.615    85921399.178        1836.129          34.000  
R 1  17503851.120    93568116.244        2286.368          48.000    17503853.036    72775208.247        1778.360          43.000  
> 2020  1  1 22 15 56.9880000  0  8                     
G27  19647104.429   103246234.977        1778.716          42.000    19647101.535    80451601.573        1385.844          41.000  
G 7  18418615.864    96790478.867        1417.000          50.000    18418610.416    75421132.521        1104.225          46.000  
G 9  16507786.833    86749004.519        -890.469          52.000    16507783.022    67596612.455        -693.915          49.000  
R 9  16033849.303    85619860.793       -2930.174          52.000    16033848.596    66593223.327       -2279.117          52.000  
R11  19422045.671   103785525.317        2883.832          48.000    19422045.947    80722094.382        2242.954          42.000  
R 8  15643607.246    83770805.834        -987.981          52.000    15643605.088    65155063.497        -768.431          49.000  
G30  20982447.412   110263500.642        2356.270          35.000    20982451.262    85919563.166        1836.062          34.000  
R 1  17503423.439    93565830.233        2285.742          48.000    17503425.391    72773430.241        1777.730          43.000  
> 2020  1  1 22 15 57.9880000  0  8                     
G27  19646766.057   103244456.554        1778.288          42.000    19646763.033    80450215.794        1385.511          41.000  
G 7  18418346.271    96789062.149        1416.565          50.000    18418340.883    75420028.583        1103.728          46.000  
G 9  16507956.371    86749895.543        -891.251          52.000    16507952.560    67597306.764        -694.468          49.000  
R 9  16034398.103    85622791.395       -2930.908          52.000    16034397.344    66595502.684       -2279.576          52.000  
R11  19421506.008   103782641.730        2883.425          48.000    19421506.445    80719851.610        2242.565          42.000  
R 8  15643791.834    83771794.320        -988.882          52.000    15643789.667    65155832.322        -769.082          49.000  
G30  20981998.939   110261144.691        2355.914          35.000    20982003.152    85917727.332        1836.067          34.000  
R 1  17502995.954    93563544.928        2285.085          48.000    17502997.887    72771652.785        1777.189          43.000  
> 2020  1  1 22 15 58.9880000  0  8                     
G27  19646427.754   103242678.383        1777.975          43.000    19646424.719    80448830.218        1385.286          41.000  
G 7  18418076.685    96787645.522        1416.421          50.000    18418071.270    75418924.729        1103.561          46.000  
G 9  16508126.031    86750786.999        -891.803          52.000    16508122.202    67598001.401        -694.915          49.000  
R 9  16034946.913    85625722.344       -2931.285          52.000    16034946.231    66597782.313       -2279.994          52.000  
R11  19420966.333   103779758.217        2883.398          48.000    19420966.807    80717608.869        2242.575          43.000  
R 8  15643976.529    83772783.547        -989.848          52.000    15643974.339    65156601.723        -769.842          50.000  
G30  20981550.328   110258788.622        2356.217          35.000    20981554.808    85915891.496        1835.979          34.000  
R 1  17502568.480    93561260.022        2284.547          48.000    17502570.399    72769875.627        1776.939          43.000  
> 2020  1  1 22 15 59.9880000  0  8                     
G27  19646089.475   103240900.420        1777.972          43.000    19646086.191    80447444.775        1385.476          41.000  
G 7  18417807.113    96786228.899        1416.576          50.000    18417801.745    75417820.858        1103.896          46.000  
G 9  16508295.813    86751678.798        -892.038          52.000    16508291.922    67598696.304        -694.864          49.000  
R 9  16035495.824    85628653.560       -2931.326          52.000    16035495.202    66600062.146       -2279.826          52.000  
R11  19420426.769   103776874.703        2883.507          48.000    19420427.223    80715366.144        2242.677          43.000  
R 8  15644161.315    83773773.424        -990.204          52.000    15644159.196    65157371.628        -770.115          50.000  
G30  20981101.855   110256432.449        2356.349          35.000    20981106.357    85914055.507        1836.116          35.000  
R 1  17502140.965    93558975.408        2284.480          48.000    17502142.923    72768098.707        1776.930          43.000  
> 2020  1  1 22 16  0.9880000  0  8                     
G27  19645751.151   103239122.806        1777.173          43.000    19645747.973    80446059.634        1385.090          41.000  
G 7  18417537.527    96784812.457        1416.052          50.000    18417532.152    75416717.142        1103.389          46.000  
G 9  16508465.634    86752571.107        -892.833          52.000    16508461.836    67599391.607        -695.599          49.000  
R 9  16036044.891    85631585.211       -2932.035          52.000    16036044.249    66602342.317       -2280.522          52.000  
R11  19419887.355   103773991.362        2882.974          48.000    19419887.681    80713123.531        2242.260          43.000  
R 8  15644346.320    83774764.145        -991.385          52.000    15644344.244    65158142.184        -770.957          50.000  
G30  20980653.446   110254076.281        2355.514          35.000    20980658.098    85912219.498        1836.159          35.000  
R 1  17501713.620    93556691.288        2283.644          48.000    17501715.578    72766322.159        1776.188          43.000  
> 2020  1  1 22 16  1.9880000  0  8                     
G27  19645413.171   103237346.017        1776.714          43.000    19645409.870    80444675.134        1384.416          41.000  
G 7  18417268.053    96783396.636        1415.664          50.000    18417262.652    75415613.911        1103.161          46.000  
G 9  16508635.587    86753464.382        -893.708          52.000    16508631.850    67600087.670        -696.337          49.000  
R 9  16036594.119    85634517.797       -2932.977          52.000    16036593.380    66604623.217       -2281.125          52.000  
R11  19419347.934   103771108.630        2882.526          48.000    19419348.343    80710881.427        2241.740          43.000  
R 8  15644531.651    83775756.155        -992.509          52.000    15644529.532    65158913.758        -771.939          49.000  
G30  20980205.069   110251720.575        2355.865          35.000    20980210.169    85910383.913        1835.249          35.000  
R 1  17501286.510    93554408.106        2282.841          48.000    17501288.599    72764546.360        1775.663          43.000  
> 2020  1  1 22 16  2.9880000  0  8                     
G27  19645075.127   103235569.860        1776.058          43.000    19645071.905    80443291.114        1383.990          40.000  
G 7  18416998.726    96781981.267        1415.223          50.000    18416993.220    75414511.030        1102.522          46.000  
G 9  16508805.693    86754358.451        -894.478          52.000    16508801.981    67600784.341        -696.880          49.000  
R 9  16037143.343    85637451.091       -2933.657          52.000    16037142.772    66606904.665       -2281.647          52.000  
R11  19418808.473   103768226.310        2882.208          48.000    19418809.050    80708639.615        2241.843          44.000  
R 8  15644717.101    83776749.231        -993.526          52.000    15644715.099    65159686.149        -772.802          49.000  
G30  20979756.836   110249365.138        2355.902          35.000    20979761.825    85908548.541        1834.745          35.000  
R 1  17500859.466    93552125.662        2281.986          48.000    17500861.659    72762771.138        1774.755          43.000  
> 2020  1  1 22 16  3.9880000  0  8                     
G27  19644737.281   103233794.311        1775.253          43.000    19644733.995    80441907.560        1383.359          41.000  
G 7  18416729.548    96780566.347        1414.756          50.000    18416723.981    75413408.492        1102.424          46.000  
G 9  16508975.925    86755253.290        -895.142          52.000    16508972.334    67601481.625        -697.586          49.000  
R 9  16037692.788    85640385.103       -2934.399          52.000    16037692.271    66609186.677       -2282.265          52.000  
R11  19418269.215   103765344.409        2881.793          48.000    19418269.744    80706398.131        2241.311          44.000  
R 8  15644902.777    83777743.395        -994.671          51.000    15644900.752    65160459.386        -773.647          49.000  
G30  20979308.458   110247010.039        2354.786          35.000    20979313.406    85906713.385        1834.615          35.000  
R 1  17500432.721    93549843.964        2281.377          48.000    17500434.861    72760996.488        1774.196          43.000  
> 2020  1  1 22 16  4.9880000  0  8                     
G27  19644399.471   103232019.194        1774.715          43.000    19644396.176    80440524.364        1383.103          41.000  
G 7  18416460.332    96779151.657        1414.419          50.000    18416454.831    75412306.130        1102.353          46.000  
G 9  16509146.309    86756148.701        -895.615          51.000    16509142.604    67602179.346        -697.874          49.000  
R 9  16038242.342    85643319.656       -2934.760          52.000    16038241.842    66611469.109       -2282.589          52.000  
R11  19417729.771   103762462.696        2881.448          48.000    19417730.592    80704156.801        2241.288          43.000  
R 8  15645088.605    83778738.415        -995.483          51.000    15645086.611    65161233.291        -774.230          49.000  
G30  20978860.256   110244654.964        2354.736          35.000    20978865.061    85904878.219        1835.283          35.000  
R 1  17500005.889    93547562.801        2280.860          48.000    17500008.153    72759222.238        1774.056          43.000  
> 2020  1  1 22 16  5.9880000  0  8                     
G27  19644061.782   103230244.501        1774.208          43.000    19644058.571    80439141.487        1382.402          41.000  
G 7  18416191.072    96777737.201        1414.103          50.000    18416185.722    75411203.969        1101.861          46.000  
G 9  16509316.816    86757044.683        -896.522          52.000    16509313.148    67602877.520        -698.588          49.000  
R 9  16038792.015    85646254.680       -2935.287          52.000    16038791.450    66613751.916       -2283.181          52.000  
R11  19417190.484   103759581.221        2881.233          48.000    19417191.361    80701915.661        2240.850          44.000  
R 8  15645274.650    83779734.309        -996.523          51.000    15645272.590    65162007.876        -775.021          49.000  
G30  20978412.033   110242299.985        2354.458          34.000    20978416.713    85903043.198        1834.534          35.000  
R 1  17499579.186    93545282.193        2280.062          48.000    17499581.390    72757448.428        1773.639          43.000  
> 2020  1  1 22 16  6.9880000  0  8                     
G27  19643724.232   103228470.662        1773.395          43.000    19643721.013    80437759.282        1381.833          41.000  
G 7  18415921.918    96776323.418        1413.549          50.000    18415916.633    75410102.330        1101.262          46.000  
G 9  16509487.499    86757941.683        -897.480          51.000    16509483.742    67603576.472        -699.230          49.000  
R 9  16039341.840    85649190.660       -2936.423          52.000    16039341.328    66616035.451       -2283.978          52.000  
R11  19416651.341   103756700.452        2880.508          48.000    19416652.372    80699675.054        2240.361          44.000  
R 8  15645460.767    83780731.536        -997.849          51.000    15645458.797    65162783.494        -776.026          50.000  
G30  20977963.919   110239945.492        2354.331          34.000    20977968.437    85901208.499        1834.872          35.000  
R 1  17499152.856    93543002.564        2279.103          48.000    17499154.865    72755675.374        1772.911          43.000  
> 2020  1  1 22 16  7.9880000  0  8                     
G27  19643386.708   103226697.511        1772.900          43.000    19643383.586    80436377.609        1381.401          41.000  
G 7  18415652.954    96774910.131        1413.158          50.000    18415647.843    75409001.052        1101.264          46.000  
G 9  16509658.263    86758839.503        -898.266          51.000    16509654.612    67604276.079        -699.855          49.000  
R 9  16039891.811    85652127.410       -2937.043          52.000    16039891.320    66618319.585       -2284.384          52.000  
R11  19416112.303   103753820.191        2880.127          48.000    19416113.330    80697434.842        2240.149          44.000  
R 8  15645647.245    83781729.913        -998.898          51.000    15645645.194    65163560.014        -776.897          50.000  
G30  20977515.841   110237591.356        2354.448          34.000    20977520.207    85899374.140        1834.331          35.000  
R 1  17498726.591    93540723.741        2278.628          48.000    17498728.692    72753902.969        1772.284          43.000  
> 2020  1  1 22 16  8.9880000  0  8                     
G27  19643049.476   103224925.095        1771.831          43.000    19643046.343    80434996.512        1380.534          41.000  
G 7  18415384.145    96773497.404        1412.217          50.000    18415378.958    75407900.229        1100.445          46.000  
G 9  16509829.299    86759738.214        -899.225          51.000    16509825.564    67604976.374        -700.772          49.000  
R 9  16040441.961    85655064.999       -2938.208          52.000    16040441.583    66620604.375       -2285.234          52.000  
R11  19415573.388   103750940.414        2879.336          48.000    19415574.471    80695195.022        2239.520          44.000  
R 8  15645833.990    83782729.479       -1000.302          51.000    15645831.906    65164337.460        -778.111          49.000  
G30  20977067.912   110235237.650        2352.959          35.000    20977072.051    85897540.066        1834.011          35.000  
R 1  17498300.596    93538445.784        2277.173          48.000    17498302.586    72752131.237        1771.109          43.000  
> 2020  1  1 22 16  9.9880000  0  8                     
G27  19642712.337   103223153.665        1771.200          43.000    19642709.269    80433616.183        1380.042          41.000  
G 7  18415115.501    96772085.491        1411.646          50.000    18415110.350    75406800.044        1099.918          46.000  
G 9  16510000.596    86760638.084        -900.324          51.000    16509996.784    67605677.570        -701.614          49.000  
R 9  16040992.282    85658003.699       -2939.028          52.000    16040991.824    66622890.035       -2286.001          52.000  
R11  19415034.591   103748061.418        2878.691          48.000    19415035.677    80692955.797        2239.084          44.000  
R 8  15646020.943    83783730.517       -1001.607          51.000    15646018.862    65165116.041        -778.967          49.000  
G30  20976620.173   110232884.586        2352.412          35.000    20976624.023    85895706.489        1833.705          35.000  
R 1  17497874.735    93536168.961        2276.432          48.000    17497876.625    72750360.380        1770.526          43.000  
> 2020  1  1 22 16 10.9880000  0  8                     
G27  19642375.417   103221383.185        1770.174          43.000    19642372.351    80432236.590        1379.118          41.000  
G 7  18414847.106    96770674.328        1410.955          50.000    18414841.901    75405700.430        1099.375          46.000  
G 9  16510172.069    86761539.037        -901.347          51.000    16510168.228    67606379.609        -702.404          49.000  
R 9  16041542.793    85660943.395       -2940.128          52.000    16041542.347    66625176.462       -2286.649          52.000  
R11  19414495.925   103745183.173        2878.005          47.000    19414497.116    80690717.153        2238.526          44.000  
R 8  15646208.125    83784732.951       -1002.999          51.000    15646205.979    65165895.711        -780.002          49.000  
G30  20976172.455   110230532.082        2352.509          35.000    20976176.155    85893873.400        1832.904          35.000  
R 1  17497448.988    93533893.175        2275.598          48.000    17497451.023    72748590.332        1769.636          43.000  
> 2020  1  1 22 16 11.9880000  0  8                     
G27  19642038.677   103219613.702        1769.101          43.000    19642035.537    80430857.776        1378.376          41.000  
G 7  18414578.720    96769263.981        1409.990          50.000    18414573.550    75404601.463        1098.640          46.000  
G 9  16510343.628    86762441.136        -902.531          51.000    16510339.867    67607082.545        -703.314          49.000  
R 9  16042093.565    85663884.203       -2941.201          52.000    16042093.127    66627463.771       -2287.701          52.000  
R11  19413957.325   103742305.747        2877.038          48.000    19413958.683    80688479.166        2237.645          44.000  
R 8  15646395.485    83785736.872       -1004.655          51.000    15646393.447    65166676.538        -781.349          49.000  
G30  20975724.850   110228180.243        2351.387          35.000    20975728.283    85892040.809        1832.604          35.000  
R 1  17497023.405    93531618.535        2274.165          48.000    17497025.541    72746821.163        1768.738          43.000  
> 2020  1  1 22 16 12.9880000  0  8                     
G27  19641702.174   103217845.350        1768.098          43.000    19641699.122    80429479.836        1377.574          41.000  
G 7  18414310.513    96767854.576        1409.422          50.000    18414305.315    75403503.235        1098.096          46.000  
G 9  16510515.523    86763344.532        -903.745          51.000    16510511.883    67607786.489        -704.189          49.000  
R 9  16042644.497    85666826.287       -2942.431          52.000    16042644.133    66629752.043       -2288.567          52.000  
R11  19413419.108   103739429.259        2876.345          48.000    19413420.387    80686241.897        2237.080          44.000  
R 8  15646583.122    83786742.389       -1005.960          51.000    15646581.211    65167458.603        -782.447          49.000  
G30  20975277.384   110225829.196        2351.375          35.000    20975280.722    85890208.844        1831.709          35.000  
R 1  17496598.165    93529345.130        2273.179          48.000    17496600.274    72745052.957        1768.012          43.000  
> 2020  1  1 22 16 13.9880000  0  8                     
G27  19641365.923   103216078.161        1766.897          43.000    19641362.969    80428102.800        1376.908          41.000  
G 7  18414042.570    96766446.163        1408.243          50.000    18414037.305    75402405.767        1097.220          46.000  
G 9  16510687.851    86764249.228        -904.925          52.000    16510684.185    67608491.452        -705.245          49.000  
R 9  16043195.748    85669769.586       -2943.685          52.000    16043195.398    66632041.275       -2289.419          52.000  
R11  19412881.168   103736553.763        2875.228          48.000    19412882.437    80684005.399        2236.328          44.000  
R 8  15646771.313    83787749.545       -1007.679          51.000    15646769.297    65168241.944        -783.709          50.000  
G30  20974830.051   110223479.013        2349.624          35.000    20974833.359    85888377.488        1831.471          35.000  
R 1  17496173.183    93527073.026        2271.709          48.000    17496175.248    72743285.770        1766.871          43.000  
> 2020  1  1 22 16 14.9880000  0  8                     
G27  19641029.798   103214311.872        1765.596          43.000    19641026.871    80426726.482        1375.490          41.000  
G 7  18413774.734    96765038.467        1406.933          50.000    18413769.420    75401308.857        1096.445          46.000  
G 9  16510860.194    86765154.987        -906.599          51.000    16510856.511    67609197.238        -706.370          49.000  
R 9  16043747.113    85672713.885       -2945.202          52.000    16043746.825    66634331.292       -2290.762          52.000  
R11  19412343.222   103733678.965        2873.948          48.000    19412344.459    80681769.445        2235.291          44.000  
R 8  15646959.710    83788758.056       -1009.570          51.000    15646957.621    65169026.346        -785.235          50.000  
G30  20974382.756   110221129.336        2349.116          35.000    20974385.957    85886546.588        1830.758          35.000  
R 1  17495748.319    93524801.948        2270.196          48.000    17495750.284    72741519.375        1765.715          43.000  
> 2020  1  1 22 16 15.9880000  0  8                     
G27  19640694.025   103212546.614        1764.898          43.000    19640690.983    80425350.945        1375.331          41.000  
G 7  18413507.039    96763631.614        1406.479          50.000    18413501.768    75400212.611        1096.074          46.000  
G 9  16511032.839    86766061.928        -907.561          51.000    16511029.084    67609903.946        -707.081          49.000  
R 9  16044298.639    85675659.309       -2945.869          52.000    16044298.384    66636622.180       -2291.301          52.000  
R11  19411805.451   103730804.977        2873.702          48.000    19411806.645    80679534.128        2234.970          44.000  
R 8  15647148.217    83789768.056       -1010.740          51.000    15647146.245    65169811.897        -786.030          50.000  
G30  20973935.827   110218780.357        2348.693          34.000    20973938.814    85884716.250        1829.587          35.000  
R 1  17495323.681    93522532.044        2269.395          48.000    17495325.616    72739753.899        1764.976          43.000  
> 2020  1  1 22 16 16.9880000  0  8                     
G27  19640358.384   103210782.360        1763.744          43.000    19640355.284    80423976.206        1374.365          41.000  
G 7  18413239.488    96762225.568        1405.658          50.000    18413234.254    75399117.000        1095.304          46.000  
G 9  16511205.646    86766970.019        -908.693          51.000    16511201.900    67610611.552        -708.077          49.000  
R 9  16044850.434    85678605.828       -2947.068          52.000    16044850.127    66638913.915       -2292.133          52.000  
R11  19411267.813   103727931.780        2872.813          48.000    19411269.039    80677299.415        2234.582          44.000  
R 8  15647337.033    83790779.506       -1012.226          51.000    15647335.030    65170598.584        -787.306          50.000  
G30  20973488.878   110216432.059        2347.770          34.000    20973491.791    85882886.412        1829.008          35.000  
R 1  17494899.327    93520263.263        2268.168          48.000    17494901.194    72737989.286        1764.178          43.000  
> 2020  1  1 22 16 17.9880000  0  8                     
G27  19640022.909   103209019.178        1762.626          43.000    19640019.721    80422602.301        1373.643          41.000  
G 7  18412972.159    96760820.423        1404.631          50.000    18412966.817    75398022.079        1094.557          46.000  
G 9  16511378.665    86767879.340        -909.912          51.000    16511374.899    67611320.107        -709.022          49.000  
R 9  16045402.528    85681553.533       -2948.281          52.000    16045402.092    66641206.575       -2293.136          52.000  
R11  19410730.294   103725059.490        2871.793          48.000    19410731.606    80675065.413        2233.571          44.000  
R 8  15647526.047    83791792.509       -1013.754          51.000    15647524.236    65171386.474        -788.506          50.000  
G30  20973042.233   110214084.446        2347.793          34.000    20973044.911    85881057.091        1829.379          35.000  
R 1  17494475.119    93517995.676        2266.962          48.000    17494476.915    72736225.612        1763.090          43.000  
> 2020  1  1 22 16 18.9880000  0  8                     
G27  19639687.464   103207256.965        1761.398          43.000    19639684.427    80421229.139        1372.617          41.000  
G 7  18412704.872    96759416.048        1403.713          50.000    18412699.542    75396927.750        1093.990          46.000  
G 9  16511551.985    86768789.776        -911.234          51.000    16511548.207    67612029.539        -709.969          49.000  
R 9  16045954.752    85684502.284       -2949.710          53.000    16045954.396    66643500.045       -2294.086          52.000  
R11  19410192.892   103722187.975        2870.801          48.000    19410194.309    80672832.019        2232.751          44.000  
R 8  15647715.411    83792806.953       -1015.552          51.000    15647713.622    65172175.479        -789.764          50.000  
G30  20972595.604   110211737.491        2346.724          35.000    20972598.130    85879228.297        1828.221          35.000  
R 1  17494051.328    93515729.176        2265.558          48.000    17494052.928    72734462.781        1762.101          43.000  
> 2020  1  1 22 16 19.9880000  0  8                     
G27  19639352.442   103205496.071        1760.353          43.000    19639349.365    80419857.023        1371.545          41.000  
G 7  18412437.832    96758012.817        1402.778          50.000    18412432.565    75395834.339        1093.045          46.000  
G 9  16511725.366    86769701.681        -912.442          51.000    16511721.815    67612740.121        -711.021          49.000  
R 9  16046507.146    85687452.449       -2950.702          53.000    16046506.783    66645794.628       -2294.969          52.000  
R11  19409655.784   103719317.599        2869.986          48.000    19409657.260    80670599.506        2232.174          44.000  
R 8  15647905.096    83793823.187       -1016.952          51.000    15647903.376    65172965.890        -790.978          50.000  
G30  20972149.086   110209391.507        2345.890          34.000    20972151.571    85877400.274        1827.490          35.000  
R 1  17493627.570    93513464.123        2264.588          48.000    17493629.142    72732701.070        1761.404          43.000  
> 2020  1  1 22 16 20.9880000  0  8                     
G27  19639017.585   103203736.437        1758.578          43.000    19639014.574    80418485.874        1370.266          41.000  
G 7  18412170.945    96756610.654        1401.375          50.000    18412165.727    75394741.739        1091.956          46.000  
G 9  16511899.127    86770614.988        -914.195          51.000    16511895.612    67613451.785        -712.313          49.000  
R 9  16047059.917    85690403.984       -2952.450          53.000    16047059.503    66648090.266       -2296.405          52.000  
R11  19409118.718   103716448.267        2868.628          48.000    19409120.351    80668367.806        2231.019          44.000  
R 8  15648095.142    83794841.141       -1019.008          51.000    15648093.564    65173757.635        -792.570          50.000  
G30  20971702.701   110207046.443        2344.180          35.000    20971705.196    85875572.948        1826.400          35.000  
R 1  17493204.122    93511200.461        2262.727          48.000    17493205.705    72730940.440        1759.899          43.000  
> 2020  1  1 22 16 21.9880000  0  8                     
G27  19638683.020   103201978.074        1757.433          43.000    19638679.897    80417115.715        1369.733          41.000  
G 7  18411904.322    96755209.591        1400.091          50.000    18411899.265    75393650.001        1091.046          46.000  
G 9  16512073.250    86771529.714        -915.680          51.000    16512069.669    67614164.562        -713.631          49.000  
R 9  16047613.004    85693356.888       -2953.838          53.000    16047612.510    66650386.973       -2297.485          52.000  
R11  19408581.983   103713580.013        2867.429          48.000    19408583.779    80666136.935        2230.208          44.000  
R 8  15648285.569    83795860.836       -1020.829          51.000    15648283.982    65174550.726        -793.951          50.000  
G30  20971256.635   110204702.320        2342.855          34.000    20971258.954    85873746.322        1825.739          35.000  
R 1  17492780.964    93508938.196        2261.236          48.000    17492782.387    72729180.896        1758.644          43.000  
> 2020  1  1 22 16 22.9880000  0  8                     
G27  19638348.721   103200220.968        1756.579          43.000    19638345.481    80415746.549        1368.692          41.000  
G 7  18411637.878    96753809.574        1399.583          50.000    18411632.829    75392559.077        1090.531          46.000  
G 9  16512247.493    86772445.846        -916.669          51.000    16512243.888    67614878.424        -714.340          49.000  
R 9  16048166.214    85696311.145       -2954.888          53.000    16048165.648    66652684.723       -2298.177          52.000  
R11  19408045.490   103710712.833        2866.722          48.000    19408047.244    80663906.913        2229.520          44.000  
R 8  15648476.397    83796882.228       -1022.060          51.000    15648474.616    65175345.143        -795.006          50.000  
G30  20970810.603   110202359.041        2343.103          35.000    20970812.908    85871920.406        1825.670          35.000  
R 1  17492358.084    93506677.311        2260.278          48.000    17492359.408    72727422.427        1758.025          43.000  
> 2020  1  1 22 16 23.9880000  0  8                     
G27  19638014.626   103198465.008        1755.013          43.000    19638011.461    80414378.288        1367.338          41.000  
G 7  18411371.687    96752410.543        1398.178          50.000    18411366.567    75391468.934        1089.377          46.000  
G 9  16512422.143    86773363.290        -918.454          51.000    16512418.489    67615593.317        -715.656          49.000  
R 9  16048719.701    85699266.640       -2956.457          52.000    16048719.121    66654983.443       -2299.452          52.000  
R11  19407509.154   103707846.637        2865.424          48.000    19407510.926    80661677.652        2228.591          45.000  
R 8  15648667.401    83797905.228       -1024.167          51.000    15648665.688    65176140.811        -796.546          49.000  
G30  20970364.888   110200016.611        2342.023          35.000    20970366.985    85870095.152        1824.440          35.000  
R 1  17491935.438    93504417.731        2258.547          48.000    17491936.595    72725664.966        1757.062          43.000  
> 2020  1  1 22 16 24.9880000  0  8                     
G27  19637680.783   103196710.558        1753.929          43.000    19637677.518    80413011.181        1366.324          41.000  
G 7  18411105.757    96751012.818        1397.262          50.000    18411100.597    75390379.786        1088.844          46.000  
G 9  16512597.047    86774282.381        -919.604          51.000    16512593.537    67616309.491        -716.609          49.000  
R 9  16049273.390    85702223.743       -2957.745          52.000    16049273.005    66657283.407       -2300.406          52.000  
R11  19406973.004   103704981.730        2864.349          48.000    19406974.844    80659449.388        2228.011          45.000  
R 8  15648858.808    83798930.206       -1025.763          51.000    15648857.109    65176938.011        -797.751          49.000  
G30  20969919.392   110197675.330        2341.110          35.000    20969921.325    85868270.784        1824.573          35.000  
R 1  17491513.115    93502159.787        2257.418          48.000    17491514.172    72723908.791        1755.762          43.000  
> 2020  1  1 22 16 25.9880000  0  8                     
G27  19637347.352   103194957.563        1752.275          43.000    19637343.989    80411645.198        1365.446          41.000  
G 7  18410840.040    96749616.390        1395.605          50.000    18410834.887    75389291.665        1087.570          46.000  
G 9  16512772.320    86775203.102        -921.759          51.000    16512768.784    67617026.938        -718.205          49.000  
R 9  16049827.402    85705182.406       -2959.509          52.000    16049827.156    66659584.593       -2301.834          52.000  
R11  19406437.094   103702118.102        2862.780          48.000    19406438.962    80657222.128        2226.662          45.000  
R 8  15649050.515    83799957.136       -1028.021          51.000    15649048.891    65177736.741        -799.569          49.000  
G30  20969474.176   110195335.187        2339.492          35.000    20969475.902    85866447.295        1822.858          35.000  
R 1  17491091.018    93499903.475        2255.301          48.000    17491092.147    72722153.879        1754.107          43.000  
> 2020  1  1 22 16 26.9880000  0  8                     
G27  19637014.024   103193206.047        1750.597          43.000    19637010.670    80410280.378        1364.197          41.000  
G 7  18410574.617    96748221.229        1394.351          50.000    18410569.361    75388204.534        1086.371          46.000  
G 9  16512947.803    86776125.427        -923.387          51.000    16512944.303    67617745.632        -719.477          49.000  
R 9  16050381.797    85708142.634       -2961.319          52.000    16050381.462    66661886.989       -2303.252          52.000  
R11  19405901.426   103699255.770        2861.376          48.000    19405903.361    80654995.871        2225.659          45.000  
R 8  15649242.625    83800986.027       -1030.026          51.000    15649241.109    65178536.992        -801.205          49.000  
G30  20969029.078   110192996.194        2337.377          34.000    20969030.643    85864624.690        1822.072          35.000  
R 1  17490669.240    93497648.732        2253.674          48.000    17490670.286    72720400.176        1752.965          43.000  
> 2020  1  1 22 16 27.9880000  0  8                     
G27  19636680.966   103191455.967        1748.635          43.000    19636677.627    80408916.691        1362.508          41.000  
G 7  18410309.359    96746827.334        1392.673          50.000    18410304.038    75387118.374        1085.184          46.000  
G 9  16513123.573    86777049.354        -925.332          51.000    16513120.182    67618465.580        -721.044          49.000  
R 9  16050936.469    85711104.399       -2963.143          52.000    16050936.063    66664190.588       -2304.781          52.000  
R11  19405366.004   103696394.712        2859.741          48.000    19405367.985    80652770.609        2224.257          45.000  
R 8  15649435.128    83802016.847       -1032.258          51.000    15649433.589    65179338.739        -802.888          49.000  
G30  20968584.078   110190658.246        2336.560          35.000    20968585.714    85862802.933        1820.919          35.000  
R 1  17490247.769    93495395.554        2251.982          48.000    17490248.706    72718647.704        1751.705          43.000  
> 2020  1  1 22 16 28.9880000  0  8                     
G27  19636348.207   103189707.191        1747.934          44.000    19636344.802    80407554.018        1362.055          40.000  
G 7  18410044.348    96745434.557        1392.070          50.000    18410039.061    75386033.085        1085.009          46.000  
G 9  16513299.606    86777974.728        -926.059          52.000    16513296.263    67619186.647        -721.672          49.000  
R 9  16051491.350    85714067.576       -2963.966          52.000    16051491.007    66666495.273       -2305.269          52.000  
R11  19404830.887   103693534.765        2859.356          48.000    19404832.798    80650546.204        2224.034          45.000  
R 8  15649627.925    83803049.425       -1033.538          51.000    15649626.326    65180141.859        -803.922          49.000  
G30  20968139.301   110188321.269        2336.534          35.000    20968140.879    85860981.904        1820.504          35.000  
R 1  17489826.516    93493143.835        2250.752          48.000    17489827.490    72716896.363        1750.868          43.000  
> 2020  1  1 22 16 29.9880000  0  8                     
G27  19636015.709   103187959.787        1746.759          43.000    19636012.414    80406192.403        1361.067          40.000  
G 7  18409779.581    96744042.975        1390.948          50.000    18409774.278    75384948.736        1083.986          46.000  
G 9  16513475.912    86778901.637        -927.742          52.000    16513472.675    67619908.911        -722.838          49.000  
R 9  16052046.606    85717032.222       -2965.367          53.000    16052046.207    66668801.101       -2306.336          52.000  
R11  19404295.812   103690675.992        2858.171          48.000    19404297.842    80648322.714        2223.040          45.000  
R 8  15649821.104    83804083.830       -1035.236          51.000    15649819.355    65180946.390        -805.238          49.000  
G30  20967694.771   110185985.347        2335.190          34.000    20967696.276    85859161.688        1819.985          35.000  
R 1  17489405.533    93490893.614        2249.520          48.000    17489406.617    72715146.201        1749.551          43.000  
> 2020  1  1 22 16 30.9880000  0  8                     
G27  19635683.450   103186213.748        1745.750          43.000    19635680.157    80404831.856        1360.456          40.000  
G 7  18409514.893    96742652.546        1390.217          50.000    18409509.720    75383865.302        1083.230          46.000  
G 9  16513652.603    86779830.036        -928.637          51.000    16513649.330    67620632.339        -723.672          49.000  
R 9  16052602.047    85719998.316       -2966.396          53.000    16052601.545    66671108.062       -2307.220          52.000  
R11  19403761.013   103687818.375        2857.328          48.000    19403763.100    80646100.127        2222.392          45.000  
R 8  15650014.618    83805120.047       -1036.801          51.000    15650012.751    65181752.331        -806.298          49.000  
G30  20967250.335   110183650.402        2334.441          34.000    20967251.795    85857342.294        1818.752          35.000  
R 1  17488984.854    93488644.880        2248.417          48.000    17488986.031    72713397.195        1748.821          43.000  
> 2020  1  1 22 16 31.9880000  0  8                     
G27  19635351.381   103184469.136        1743.500          43.000    19635348.170    80403472.428        1358.493          40.000  
G 7  18409250.546    96741263.369        1388.096          50.000    18409245.381    75382782.807        1081.897          46.000  
G 9  16513829.623    86780760.022        -931.044          51.000    16513826.313    67621357.008        -725.500          49.000  
R 9  16053157.771    85722965.953       -2968.813          53.000    16053157.267    66673416.223       -2309.005          52.000  
R11  19403226.513   103684962.007        2855.394          48.000    19403228.599    80643878.509        2220.889          45.000  
R 8  15650208.433    83806158.161       -1039.458          51.000    15650206.567    65182559.753        -808.335          49.000  
G30  20966806.173   110181316.562        2332.747          34.000    20966807.488    85855523.707        1817.716          35.000  
R 1  17488564.436    93486397.728        2246.013          48.000    17488565.764    72711649.408        1746.846          44.000  
> 2020  1  1 22 16 32.9880000  0  8                     
G27  19635019.650   103182726.060        1742.024          43.000    19635016.423    80402114.190        1357.396          40.000  
G 7  18408986.486    96739875.541        1386.819          50.000    18408981.307    75381701.395        1080.668          46.000  
G 9  16514006.952    86781691.692        -932.655          51.000    16514003.563    67622082.984        -726.758          49.000  
R 9  16053713.870    85725935.217       -2970.349          53.000    16053713.310    66675725.655       -2310.249          52.000  
R11  19402692.143   103682107.008        2853.949          48.000    19402694.356    80641657.953        2219.864          45.000  
R 8  15650402.653    83807198.277       -1041.316          51.000    15650400.782    65183368.737        -809.872          49.000  
G30  20966362.155   110178983.910        2331.610          34.000    20966363.560    85853706.042        1817.286          35.000  
R 1  17488144.334    93484152.225        2244.447          48.000    17488145.658    72709902.907        1745.669          44.000  
> 2020  1  1 22 16 33.9880000  0  8                     
G27  19634688.232   103180984.601        1740.743          43.000    19634685.016    80400757.213        1356.448          40.000  
G 7  18408722.630    96738489.145        1385.734          50.000    18408717.532    75380621.086        1079.850          46.000  
G 9  16514184.572    86782625.131        -934.192          51.000    16514181.184    67622810.339        -727.953          49.000  
R 9  16054270.338    85728906.185       -2971.764          53.000    16054269.635    66678036.407       -2311.362          51.000  
R11  19402158.170   103679253.428        2853.084          48.000    19402160.451    80639438.500        2219.179          45.000  
R 8  15650597.199    83808240.504       -1043.117          51.000    15650595.357    65184179.360        -811.352          49.000  
G30  20965918.517   110176652.520        2330.991          34.000    20965919.842    85851889.382        1815.898          35.000  
R 1  17487724.585    93481908.487        2242.906          48.000    17487725.890    72708157.774        1744.696          44.000  
> 2020  1  1 22 16 34.9880000  0  8                     
G27  19634357.073   103179244.378        1739.455          43.000    19634353.831    80399401.197        1355.318          40.000  
G 7  18408459.094    96737103.796        1384.694          50.000    18408453.944    75379541.596        1079.057          46.000  
G 9  16514362.452    86783559.955        -935.592          51.000    16514359.079    67623538.771        -728.937          49.000  
R 9  16054826.874    85731878.479       -2973.042          53.000    16054826.242    66680348.199       -2312.472          51.000  
R11  19401624.288   103676400.886        2851.879          48.000    19401626.684    80637219.859        2218.135          45.000  
R 8  15650792.195    83809284.472       -1044.973          51.000    15650790.365    65184991.338        -812.837          49.000  
G30  20965475.067   110174322.039        2329.814          34.000    20965476.337    85850073.390        1816.278          35.000  
R 1  17487305.168    93479666.114        2241.531          48.000    17487306.383    72706413.720        1743.300          44.000  
> 2020  1  1 22 16 35.9880000  0  8                     
G27  19634026.085   103177505.505        1738.595          43.000    19634022.946    80398046.241        1354.695          40.000  
G 7  18408195.657    96735719.625        1383.903          49.000    18408190.543    75378463.017        1078.589          46.000  
G 9  16514540.591    86784496.283        -936.679          51.000    16514537.299    67624268.386        -729.932          49.000  
R 9  16055383.772    85734852.265       -2974.142          52.000    16055382.996    66682661.141       -2313.188          51.000  
R11  19401090.682   103673549.498        2851.134          48.000    19401093.132    80635002.116        2217.544          45.000  
R 8  15650987.452    83810330.309       -1046.446          51.000    15650985.607    65185804.763        -813.848          49.000  
G30  20965031.879   110171992.543        2329.659          34.000    20965033.001    85848258.282        1814.523          35.000  
R 1  17486885.905    93477425.229        2240.578          47.000    17486887.141    72704670.812        1742.586          43.000  
> 2020  1  1 22 16 36.9880000  0  8                     
G27  19633695.489   103175767.959        1736.937          43.000    19633692.353    80396692.309        1353.191          40.000  
G 7  18407932.435    96734336.582        1382.378          50.000    18407927.334    75377385.329        1077.263          46.000  
G 9  16514719.087    86785434.095        -938.821          51.000    16514715.719    67624999.140        -731.445          49.000  
R 9  16055941.000    85737827.465       -2976.011          53.000    16055940.230    66684975.187       -2314.687          51.000  
R11  19400557.283   103670699.257        2849.517          48.000    19400559.721    80632785.259        2216.246          45.000  
R 8  15651182.980    83811377.945       -1048.635          51.000    15651181.180    65186619.589        -815.496          49.000  
G30  20964588.827   110169664.054        2328.351          34.000    20964589.822    85846443.793        1814.808          34.000  
R 1  17486466.958    93475185.822        2238.490          48.000    17486468.244    72702929.052        1741.068          43.000  
> 2020  1  1 22 16 37.9880000  0  8                     
G27  19633365.108   103174031.717        1735.286          43.000    19633361.894    80395339.372        1352.269          41.000  
G 7  18407669.498    96732954.653        1381.133          50.000    18407664.417    75376308.496        1076.224          46.000  
G 9  16514897.827    86786373.334        -940.246          51.000    16514894.394    67625731.023        -732.737          49.000  
R 9  16056498.372    85740804.067       -2977.646          53.000    16056497.621    66687290.312       -2315.897          51.000  
R11  19400024.079   103667850.140        2848.175          48.000    19400026.603    80630569.269        2215.326          45.000  
R 8  15651378.939    83812427.321       -1050.414          51.000    15651377.077    65187435.772        -817.019          49.000  
G30  20964145.992   110167336.511        2326.992          34.000    20964146.781    85844630.201        1812.446          34.000  
R 1  17486048.273    93472947.828        2237.059          48.000    17486049.685    72701188.393        1739.949          43.000  
> 2020  1  1 22 16 38.9880000  0  8                     
G27  19633035.008   103172296.722        1734.091          43.000    19633031.796    80393987.430        1351.451          40.000  
G 7  18407406.695    96731573.784        1380.216          50.000    18407401.695    75375232.501        1075.484          46.000  
G 9  16515076.810    86787313.970        -941.386          51.000    16515073.400    67626463.987        -733.548          49.000  
R 9  16057056.077    85743781.994       -2978.654          52.000    16057055.324    66689606.482       -2316.723          51.000  
R11  19399491.225   103665002.064        2847.371          48.000    19399493.657    80628354.113        2214.586          45.000  
R 8  15651575.086    83813478.378       -1052.070          51.000    15651573.410    65188253.259        -818.278          49.000  
G30  20963703.235   110165009.860        2326.323          34.000    20963703.930    85842817.216        1812.130          34.000  
R 1  17485629.781    93470711.222        2235.785          48.000    17485631.351    72699448.801        1739.005          43.000  
> 2020  1  1 22 16 39.9880000  0  8                     
G27  19632705.074   103170563.166        1732.653          43.000    19632701.996    80392636.609        1350.167          40.000  
G 7  18407144.096    96730194.175        1379.006          50.000    18407139.158    75374157.488        1074.322          46.000  
G 9  16515256.150    86788256.222        -943.144          51.000    16515252.731    67627198.207        -734.866          49.000  
R 9  16057614.070    85746761.471       -2980.298          52.000    16057613.303    66691923.850       -2317.940          51.000  
R11  19398958.526   103662155.231        2846.111          48.000    19398960.945    80626139.907        2213.713          45.000  
R 8  15651771.682    83814531.317       -1053.909          51.000    15651770.018    65189072.214        -819.672          49.000  
G30  20963260.765   110162684.318        2324.949          34.000    20963261.250    85841005.083        1811.580          34.000  
R 1  17485211.527    93468476.197        2234.127          48.000    17485213.173    72697710.451        1737.624          43.000  
> 2020  1  1 22 16 40.9880000  0  8                     
G27  19632375.389   103168831.199        1731.175          43.000    19632372.258    80391287.018        1348.985          41.000  
G 7  18406881.824    96728815.971        1377.327          50.000    18406876.978    75373083.555        1073.323          46.000  
G 9  16515435.730    86789200.190        -944.989          51.000    16515432.345    67627933.770        -736.370          49.000  
R 9  16058172.371    85749742.626       -2982.288          52.000    16058171.459    66694242.530       -2319.556          51.000  
R11  19398426.076   103659309.803        2844.521          48.000    19398428.576    80623926.799        2212.368          45.000  
R 8  15651968.733    83815586.299       -1056.318          51.000    15651967.029    65189892.761        -821.531          49.000  
G30  20962818.521   110160360.001        2323.756          35.000    20962818.886    85839193.932        1810.596          34.000  
R 1  17484793.687    93466242.899        2232.295          48.000    17484795.297    72695973.436        1736.153          43.000  
> 2020  1  1 22 16 41.9880000  0  8                     
G27  19632046.069   103167100.834        1729.605          43.000    19632042.965    80389938.682        1347.668          41.000  
G 7  18406619.799    96727439.182        1376.058          50.000    18406614.890    75372010.735        1072.272          46.000  
G 9  16515615.713    86790145.920        -946.497          51.000    16515612.215    67628670.702        -737.614          49.000  
R 9  16058731.108    85752725.495       -2983.769          53.000    16058730.118    66696562.535       -2320.678          51.000  
R11  19397893.890   103656465.786        2843.262          49.000    19397896.422    80621714.789        2211.400          45.000  
R 8  15652166.168    83816643.354       -1058.156          51.000    15652164.592    65190714.908        -822.944          49.000  
G30  20962376.595   110158036.977        2322.050          35.000    20962376.783    85837383.784        1809.492          34.000  
R 1  17484376.323    93464011.341        2230.686          48.000    17484377.874    72694237.788        1734.840          43.000  
> 2020  1  1 22 16 42.9880000  0  8                     
G27  19631717.050   103165371.657        1728.342          43.000    19631713.956    80388591.252        1347.098          41.000  
G 7  18406357.939    96726063.365        1375.305          50.000    18406353.208    75370938.678        1071.532          46.000  
G 9  16515795.920    86791092.976        -947.745          51.000    16515792.416    67629408.671        -738.530          49.000  
R 9  16059289.887    85755709.623       -2984.827          52.000    16059288.913    66698883.526       -2321.561          51.000  
R11  19397361.866   103653622.781        2842.401          48.000    19397364.336    80619503.560        2210.660          45.000  
R 8  15652363.969    83817702.076       -1059.654          51.000    15652362.304    65191538.355        -824.057          49.000  
G30  20961934.723   110155714.742        2321.417          35.000    20961934.854    85835574.247        1809.154          34.000  
R 1  17483959.050    93461781.089        2229.538          48.000    17483960.776    72692503.148        1733.991          43.000  
> 2020  1  1 22 16 43.9880000  0  8                     
G27  19631388.242   103163643.566        1727.678          42.000    19631385.092    80387244.716        1346.129          41.000  
G 7  18406096.210    96724688.481        1374.398          50.000    18406091.576    75369867.338        1070.894          46.000  
G 9  16515976.367    86792041.282        -948.837          51.000    16515972.924    67630147.608        -739.389          49.000  
R 9  16059848.913    85758694.958       -2985.808          52.000    16059848.066    66701205.448       -2322.301          51.000  
R11  19396829.997   103650780.687        2841.627          48.000    19396832.517    80617293.033        2210.294          45.000  
R 8  15652562.109    83818762.389       -1061.167          51.000    15652560.360    65192363.044        -825.239          49.000  
G30  20961492.945   110153393.282        2320.674          35.000    20961492.927    85833765.321        1808.495          34.000  
R 1  17483542.028    93459552.068        2228.535          48.000    17483543.689    72690769.462        1733.241          43.000  
> 2020  1  1 22 16 44.9880000  0  8                     
G27  19631059.610   103161916.617        1726.530          42.000    19631056.392    80385899.037        1345.142          40.000  
G 7  18405834.727    96723314.537        1373.598          50.000    18405830.150    75368796.723        1070.407          46.000  
G 9  16516157.080    86792990.869        -950.163          51.000    16516153.620    67630887.548        -740.340          49.000  
R 9  16060408.285    85761681.502       -2986.983          52.000    16060407.316    66703528.312       -2323.208          51.000  
R11  19396298.243   103647939.489        2840.894          48.000    19396300.822    80615083.225        2209.442          45.000  
R 8  15652760.475    83819824.291       -1062.563          51.000    15652758.601    65193188.970        -826.409          49.000  
G30  20961051.291   110151072.609        2320.033          35.000    20961051.322    85831956.998        1808.019          34.000  
R 1  17483125.285    93457324.325        2227.219          48.000    17483126.967    72689036.778        1732.249          43.000  
> 2020  1  1 22 16 45.9880000  0  8                     
G27  19630731.240   103160190.791        1725.078          42.000    19630727.989    80384554.238        1343.982          40.000  
G 7  18405573.406    96721941.537        1372.184          50.000    18405568.878    75367726.851        1069.523          46.000  
G 9  16516337.954    86793941.732        -951.825          51.000    16516334.563    67631628.479        -741.736          49.000  
R 9  16060967.717    85764669.266       -2988.550          52.000    16060966.756    66705852.129       -2324.502          51.000  
R11  19395766.655   103645099.190        2839.529          48.000    19395769.231    80612874.095        2208.702          45.000  
R 8  15652959.033    83820887.796       -1064.540          51.000    15652957.116    65194016.136        -828.010          49.000  
G30  20960609.998   110148752.713        2319.115          35.000    20960609.867    85830149.302        1807.274          34.000  
R 1  17482708.741    93455097.836        2225.514          48.000    17482710.502    72687305.054        1731.044          43.000  
> 2020  1  1 22 16 46.9880000  0  8                     
G27  19630403.050   103158466.170        1724.015          43.000    19630399.792    80383210.368        1343.638          40.000  
G 7  18405312.398    96720569.552        1371.450          49.000    18405307.709    75366657.786        1068.592          46.000  
G 9  16516519.153    86794893.941        -952.889          51.000    16516515.712    67632370.459        -742.506          49.000  
R 9  16061527.549    85767658.322       -2989.719          52.000    16061526.453    66708176.951       -2325.420          51.000  
R11  19395235.343   103642259.934        2838.705          48.000    19395237.915    80610665.788        2207.934          45.000  
R 8  15653157.936    83821952.980       -1066.017          51.000    15653155.903    65194844.608        -829.035          49.000  
G30  20960168.734   110146433.643        2318.925          35.000    20960168.509    85828342.262        1806.565          34.000  
R 1  17482292.558    93452872.665        2224.491          48.000    17482294.244    72685574.378        1730.067          43.000  
> 2020  1  1 22 16 47.9880000  0  8                     
G27  19630075.085   103156742.886        1722.337          43.000    19630071.953    80381867.574        1342.003          40.000  
G 7  18405051.512    96719198.708        1370.125          49.000    18405046.924    75365589.603        1067.548          46.000  
G 9  16516700.718    86795847.621        -954.566          51.000    16516697.291    67633113.587        -743.749          49.000  
R 9  16062087.528    85770648.793       -2991.238          52.000    16062086.368    66710502.871       -2326.521          51.000  
R11  19394704.280   103639421.856        2837.421          48.000    19394706.880    80608458.407        2206.710          45.000  
R 8  15653357.158    83823019.952       -1067.996          51.000    15653355.204    65195674.476        -830.589          49.000  
G30  20959727.673   110144115.582        2317.533          35.000    20959727.363    85826535.969        1806.083          34.000  
R 1  17481876.604    93450648.966        2222.824          48.000    17481878.257    72683844.834        1728.770          43.000  
> 2020  1  1 22 16 48.9880000  0  8                     
G27  19629747.379   103155021.016        1721.646          43.000    19629744.382    80380525.854        1341.385          40.000  
G 7  18404790.868    96717829.108        1369.298          49.000    18404786.186    75364522.371        1067.085          46.000  
G 9  16516882.519    86796802.895        -955.745          51.000    16516879.035    67633857.963        -744.870          49.000  
R 9  16062647.774    85773640.780       -2992.528          52.000    16062646.719    66712829.976       -2327.472          51.000  
R11  19394173.356   103636585.040        2836.497          48.000    19394175.990    80606251.990        2206.110          45.000  
R 8  15653556.760    83824088.824       -1069.523          51.000    15653554.763    65196505.829        -831.935          49.000  
G30  20959286.822   110141798.627        2316.729          35.000    20959286.506    85824730.546        1805.365          34.000  
R 1  17481460.912    93448426.822        2221.698          48.000    17481462.526    72682116.506        1727.892          44.000  
> 2020  1  1 22 16 49.9880000  0  8                     
G27  19629419.966   103153300.195        1720.355          43.000    19629416.967    80379184.955        1340.578          40.000  
G 7  18404530.339    96716460.356        1368.255          49.000    18404525.771    75363455.814        1066.185          46.000  
G 9  16517064.558    86797759.344        -957.082          51.000    16517061.071    67634603.244        -745.776          49.000  
R 9  16063208.317    85776633.919       -2993.665          53.000    16063207.254    66715157.966       -2328.352          52.000  
R11  19393642.698   103633749.030        2835.612          48.000    19393645.321    80604046.198        2205.550          44.000  
R 8  15653756.794    83825159.206       -1071.156          51.000    15653754.540    65197338.343        -832.993          49.000  
G30  20958846.105   110139482.328        2316.626          35.000    20958845.674    85822925.641        1804.552          34.000  
R 1  17481045.416    93446205.844        2220.395          48.000    17481047.129    72680389.082        1727.023          44.000  
> 2020  1  1 22 16 50.9880000  0  8                     
G27  19629092.703   103151580.541        1719.021          43.000    19629089.805    80377844.940        1340.048          40.000  
G 7  18404269.993    96715092.579        1367.193          50.000    18404265.431    75362390.018        1065.265          46.000  
G 9  16517246.768    86798717.106        -958.481          51.000    16517243.365    67635349.551        -746.934          49.000  
R 9  16063769.101    85779628.314       -2995.156          52.000    16063768.031    66717486.938       -2329.566          52.000  
R11  19393112.037   103630913.970        2834.562          48.000    19393114.781    80601841.157        2204.511          44.000  
R 8  15653957.024    83826231.217       -1072.936          51.000    15653954.663    65198172.132        -834.534          49.000  
G30  20958405.456   110137166.865        2314.500          35.000    20958404.921    85821121.398        1803.704          34.000  
R 1  17480630.206    93443986.164        2218.870          48.000    17480631.887    72678662.660        1725.813          44.000  
> 2020  1  1 22 16 51.9880000  0  8                     
G27  19628765.716   103149862.017        1718.059          43.000    19628762.857    80376505.859        1338.939          40.000  
G 7  18404009.909    96713725.750        1366.482          50.000    18404005.318    75361324.952        1064.649          46.000  
G 9  16517429.246    86799676.157        -959.533          52.000    16517425.837    67636096.870        -747.742          49.000  
R 9  16064330.066    85782623.915       -2995.953          53.000    16064329.080    66719816.853       -2330.228          52.000  
R11  19392581.721   103628079.844        2833.917          48.000    19392584.374    80599636.830        2204.230          44.000  
R 8  15654157.484    83827304.815       -1074.255          51.000    15654155.207    65199007.154        -835.497          49.000  
G30  20957964.920   110134852.186        2314.052          35.000    20957964.471    85819317.751        1803.745          35.000  
R 1  17480215.260    93441767.749        2217.893          48.000    17480216.871    72676937.227        1725.011          44.000  
> 2020  1  1 22 16 52.9880000  0  8                     
G27  19628438.850   103148144.678        1716.923          43.000    19628436.140    80375167.688        1337.768          40.000  
G 7  18403750.113    96712359.909        1365.659          50.000    18403745.424    75360260.670        1063.983          46.000  
G 9  16517611.993    86800636.535        -960.636          51.000    16517608.440    67636845.212        -748.564          49.000  
R 9  16064891.269    85785620.783       -2997.081          53.000    16064890.299    66722147.748       -2331.119          52.000  
R11  19392051.436   103625246.739        2832.981          48.000    19392054.151    80597433.306        2203.547          44.000  
R 8  15654358.305    83828380.042       -1075.708          51.000    15654356.078    65199843.452        -836.701          49.000  
G30  20957524.627   110132538.322        2313.861          35.000    20957524.214    85817514.735        1803.237          35.000  
R 1  17479800.590    93439550.644        2216.730          48.000    17479802.171    72675212.812        1724.156          44.000  
> 2020  1  1 22 16 53.9880000  0  8                     
G27  19628112.219   103146428.466        1715.458          43.000    19628109.463    80373830.389        1336.790          40.000  
G 7  18403490.373    96710995.017        1364.302          50.000    18403485.674    75359197.111        1063.071          46.000  
G 9  16517795.021    86801598.198        -962.419          52.000    16517791.488    67637594.558        -749.894          49.000  
R 9  16065452.721    85788618.876       -2998.748          53.000    16065451.764    66724479.598       -2332.400          52.000  
R11  19391521.427   103622414.585        2831.541          48.000    19391524.207    80595230.532        2202.150          44.000  
R 8  15654559.389    83829456.881       -1077.711          51.000    15654557.252    65200680.994        -838.341          49.000  
G30  20957084.477   110130225.278        2312.509          35.000    20957083.972    85815712.382        1801.958          35.000  
R 1  17479386.108    93437334.805        2215.048          48.000    17479387.630    72673489.389        1722.730          44.000  
> 2020  1  1 22 16 54.9880000  0  8                     
G27  19627785.794   103144713.377        1714.570          43.000    19627783.190    80372493.939        1336.095          40.000  
G 7  18403230.815    96709631.048        1363.663          50.000    18403226.053    75358134.278        1062.559          46.000  
G 9  16517978.222    86802561.118        -963.358          52.000    16517974.656    67638344.877        -750.583          49.000  
R 9  16066014.445    85791618.187       -2999.819          53.000    16066013.436    66726812.393       -2333.252          52.000  
R11  19390991.674   103619583.362        2830.718          48.000    19390994.399    80593028.450        2201.821          44.000  
R 8  15654760.742    83830535.316       -1079.208          51.000    15654758.588    65201519.770        -839.336          49.000  
G30  20956644.400   110127913.002        2312.183          34.000    20956643.846    85813910.599        1801.183          35.000  
R 1  17478971.837    93435120.216        2214.083          48.000    17478973.228    72671766.920        1722.136          44.000  
> 2020  1  1 22 16 55.9880000  0  8                     
G27  19627459.722   103142999.369        1713.214          43.000    19627457.008    80371158.355        1334.917          40.000  
G 7  18402971.468    96708267.979        1362.426          50.000    18402966.652    75357072.146        1061.722          46.000  
G 9  16518161.761    86803525.273        -964.834          52.000    16518158.115    67639096.179        -751.914          49.000  
R 9  16066576.359    85794618.676       -3001.236          53.000    16066575.350    66729146.100       -2334.251          52.000  
R11  19390462.006   103616752.991        2829.648          48.000    19390464.625    80590827.046        2201.026          44.000  
R 8  15654962.490    83831615.278       -1080.821          51.000    15654960.244    65202359.742        -840.676          49.000  
G30  20956204.558   110125601.438        2311.140          34.000    20956203.829    85812109.372        1800.685          34.000  
R 1  17478557.806    93432906.848        2212.675          48.000    17478559.161    72670045.415        1720.742          44.000  
> 2020  1  1 22 16 56.9880000  0  8                     
G27  19627133.779   103141286.814        1711.887          43.000    19627131.101    80369823.896        1334.070          40.000  
G 7  18402712.266    96706906.189        1361.227          50.000    18402707.558    75356011.017        1060.677          46.000  
G 9  16518345.439    86804491.050        -966.514          52.000    16518341.933    67639848.725        -753.110          49.000  
R 9  16067138.617    85797620.697       -3002.743          52.000    16067137.527    66731481.010       -2335.468          52.000  
R11  19389932.657   103613923.875        2828.421          48.000    19389935.115    80588626.625        2200.084          44.000  
R 8  15655164.558    83832697.187       -1082.786          52.000    15655162.256    65203201.218        -842.205          49.000  
G30  20955764.972   110123291.009        2310.183          34.000    20955764.137    85810309.044        1799.810          35.000  
R 1  17478143.946    93430695.104        2211.008          48.000    17478145.443    72668325.165        1719.633          44.000  
> 2020  1  1 22 16 57.9880000  0  8                     
G27  19626808.159   103139575.755        1710.404          43.000    19626805.540    80368490.613        1332.547          41.000  
G 7  18402453.314    96705545.688        1359.789          50.000    18402448.859    75354950.879        1059.768          46.000  
G 9  16518529.506    86805458.447        -968.355          52.000    16518526.030    67640602.543        -754.554          49.000  
R 9  16067701.052    85800624.316       -3004.475          53.000    16067700.052    66733817.159       -2336.848          52.000  
R11  19389403.449   103611096.052        2827.102          48.000    19389405.878    80586427.216        2198.994          44.000  
R 8  15655366.970    83833781.046       -1084.934          52.000    15655364.677    65204044.220        -843.750          49.000  
G30  20955325.628   110120981.717        2308.473          34.000    20955324.614    85808509.577        1799.086          35.000  
R 1  17477730.624    93428484.974        2209.247          48.000    17477732.008    72666606.176        1718.402          44.000  
> 2020  1  1 22 16 58.9880000  0  8                     
G27  19626482.761   103137866.021        1709.331          43.000    19626480.312    80367158.364        1331.721          41.000  
G 7  18402194.611    96704186.318        1359.158          49.000    18402190.108    75353891.638        1059.079          46.000  
G 9  16518713.943    86806427.298        -969.277          52.000    16518710.423    67641357.494        -755.281          49.000  
R 9  16068263.834    85803629.355       -3005.351          53.000    16068262.772    66736154.408       -2337.514          52.000  
R11  19388874.349   103608269.401        2826.335          48.000    19388876.879    80584228.722        2198.249          44.000  
R 8  15655569.775    83834866.694       -1086.156          52.000    15655567.385    65204888.616        -844.794          49.000  
G30  20954886.247   110118673.399        2307.723          34.000    20954885.302    85806710.897        1798.540          35.000  
R 1  17477317.400    93426276.295        2208.228          48.000    17477318.961    72664888.313        1717.535          44.000  
> 2020  1  1 22 16 59.9880000  0  8                     
G27  19626157.625   103136157.402        1707.718          42.000    19626155.138    80365826.961        1330.549          41.000  
G 7  18401936.089    96702827.890        1357.833          49.000    18401931.575    75352833.121        1058.046          46.000  
G 9  16518898.586    86807397.436        -970.940          52.000    16518895.093    67642113.447        -756.602          49.000  
R 9  16068826.738    85806635.579       -3006.980          52.000    16068825.704    66738492.585       -2338.734          52.000  
R11  19388345.552   103605443.674        2825.089          48.000    19388348.014    80582030.930        2197.340          44.000  
R 8  15655772.853    83835953.946       -1088.210          51.000    15655770.378    65205734.257        -846.327          49.000  
G30  20954447.027   110116365.872        2306.520          35.000    20954446.194    85804912.795        1797.634          34.000  
R 1  17476904.348    93424068.852        2206.834          48.000    17476905.984    72663171.425        1716.381          43.000  
> 2020  1  1 22 17  0.9880000  0  8                     
G27  19625832.640   103134449.633        1706.973          42.000    19625830.208    80364496.221        1330.132          41.000  
G 7  18401677.736    96701470.122        1357.119          49.000    18401673.192    75351775.124        1057.510          46.000  
G 9  16519083.360    86808368.562        -971.900          52.000    16519079.819    67642870.164        -757.261          49.000  
R 9  16069389.815    85809642.746       -3007.924          52.000    16069388.906    66740831.494       -2339.489          52.000  
R11  19387816.967   103602618.573        2824.529          48.000    19387819.340    80579833.636        2196.808          44.000  
R 8  15655976.147    83837042.484       -1089.385          51.000    15655973.716    65206580.903        -847.331          49.000  
G30  20954007.942   110114058.766        2306.812          35.000    20954007.149    85803115.085        1797.538          34.000  
R 1  17476491.623    93421862.394        2205.680          48.000    17476493.184    72661455.284        1715.475          43.000  
> 2020  1  1 22 17  1.9880000  0  8                     
G27  19625507.877   103132743.067        1706.452          42.000    19625505.454    80363166.434        1329.437          41.000  
G 7  18401419.502    96700113.367        1356.509          49.000    18401414.983    75350717.911        1056.983          46.000  
G 9  16519268.416    86809341.040        -972.718          52.000    16519264.871    67643627.940        -758.016          49.000  
R 9  16069953.133    85812651.207       -3008.755          52.000    16069952.272    66743171.403       -2340.143          52.000  
R11  19387288.593   103599794.476        2823.882          48.000    19387290.936    80577637.111        2196.360          44.000  
R 8  15656179.699    83838132.676       -1090.696          51.000    15656177.319    65207428.823        -848.298          49.000  
G30  20953569.153   110111752.606        2306.227          35.000    20953568.267    85801318.073        1796.777          35.000  
R 1  17476079.045    93419657.257        2204.749          48.000    17476080.562    72659740.174        1714.872          43.000  
> 2020  1  1 22 17  2.9880000  0  8                     
G27  19625183.362   103131037.633        1704.815          42.000    19625180.828    80361837.529        1328.237          41.000  
G 7  18401161.464    96698757.548        1355.074          49.000    18401157.010    75349661.429        1055.899          46.000  
G 9  16519453.716    86810314.793        -974.558          52.000    16519450.171    67644386.709        -759.465          49.000  
R 9  16070516.819    85815660.853       -3010.381          52.000    16070515.854    66745512.245       -2341.473          52.000  
R11  19386760.228   103596971.334        2822.442          48.000    19386762.680    80575441.340        2195.171          44.000  
R 8  15656383.606    83839224.424       -1092.704          51.000    15656381.188    65208277.972        -850.045          49.000  
G30  20953130.568   110109447.185        2304.955          35.000    20953129.537    85799521.665        1795.433          35.000  
R 1  17475666.741    93417453.373        2202.945          48.000    17475668.268    72658026.042        1713.451          43.000  
> 2020  1  1 22 17  3.9880000  0  8                     
G27  19624859.081   103129333.406        1703.744          42.000    19624856.586    80360509.555        1327.412          41.000  
G 7  18400903.703    96697402.749        1354.288          49.000    18400899.157    75348605.745        1055.245          46.000  
G 9  16519639.322    86811289.915        -975.842          52.000    16519635.673    67645146.544        -760.368          49.000  
R 9  16071080.688    85818671.856       -3011.640          52.000    16071079.648    66747854.128       -2342.303          52.000  
R11  19386232.030   103594149.212        2821.484          48.000    19386234.548    80573246.348        2194.624          44.000  
R 8  15656587.835    83840317.878       -1094.421          52.000    15656585.420    65209128.427        -851.145          49.000  
G30  20952692.086   110107142.635        2303.949          36.000    20952691.015    85797725.867        1795.947          35.000  
R 1  17475254.822    93415250.831        2201.789          48.000    17475256.212    72656312.943        1712.631          43.000  
> 2020  1  1 22 17  4.9880000  0  8                     
G27  19624534.962   103127630.287        1702.454          42.000    19624532.584    80359182.444        1326.394          41.000  
G 7  18400646.026    96696048.864        1353.312          49.000    18400641.479    75347550.771        1054.502          46.000  
G 9  16519825.127    86812266.266        -977.092          52.000    16519821.483    67645907.336        -761.331          49.000  
R 9  16071644.720    85821684.009       -3012.875          52.000    16071643.584    66750196.923       -2343.387          52.000  
R11  19385704.123   103591327.977        2820.692          48.000    19385706.550    80571052.060        2193.780          44.000  
R 8  15656792.276    83841412.911       -1095.914          51.000    15656789.916    65209980.118        -852.395          49.000  
G30  20952253.737   110104838.838        2303.481          36.000    20952252.584    85795930.757        1794.354          35.000  
R 1  17474842.899    93413049.518        2200.655          48.000    17474844.321    72654600.813        1711.716          43.000  
> 2020  1  1 22 17  5.9880000  0  8                     
G27  19624211.079   103125928.277        1701.429          42.000    19624208.678    80357856.196        1325.800          41.000  
G 7  18400388.544    96694695.903        1352.639          49.000    18400383.922    75346496.523        1053.914          46.000  
G 9  16520011.286    86813243.880        -978.190          52.000    16520007.416    67646669.110        -762.180          49.000  
R 9  16072209.019    85824697.378       -3013.817          53.000    16072207.921    66752540.655       -2344.124          52.000  
R11  19385176.416   103588507.648        2820.111          48.000    19385178.693    80568858.469        2193.402          44.000  
R 8  15656996.990    83842509.544       -1097.344          52.000    15656994.707    65210833.064        -853.623          49.000  
G30  20951815.406   110102535.804        2302.570          35.000    20951814.428    85794136.158        1794.334          35.000  
R 1  17474431.362    93410849.463        2199.512          48.000    17474432.778    72652889.656        1710.737          43.000  
> 2020  1  1 22 17  6.9880000  0  8                     
G27  19623887.326   103124227.229        1700.755          43.000    19623884.929    80356530.700        1325.525          41.000  
G 7  18400131.187    96693343.723        1352.089          49.000    18400126.472    75345442.862        1053.622          46.000  
G 9  16520197.432    86814222.615        -979.128          52.000    16520193.699    67647431.763        -762.941          49.000  
R 9  16072773.534    85827711.795       -3014.674          53.000    16072772.481    66754885.203       -2344.781          52.000  
R11  19384648.752   103585688.098        2819.359          48.000    19384650.954    80566665.484        2192.896          44.000  
R 8  15657201.975    83843607.603       -1098.459          52.000    15657199.841    65211687.104        -854.402          49.000  
G30  20951377.267   110100233.373        2302.938          35.000    20951376.298    85792342.047        1794.467          35.000  
R 1  17474020.004    93408650.504        2198.736          48.000    17474021.440    72651179.358        1710.137          43.000  
> 2020  1  1 22 17  7.9880000  0  8                     
G27  19623563.896   103122527.080        1699.642          43.000    19623561.347    80355205.921        1324.284          41.000  
G 7  18399873.987    96691992.232        1350.984          49.000    18399869.379    75344389.761        1052.807          46.000  
G 9  16520383.911    86815202.386        -980.295          52.000    16520380.169    67648195.224        -763.908          49.000  
R 9  16073338.191    85830727.189       -3016.066          53.000    16073337.168    66757230.514       -2345.859          52.000  
R11  19384121.218   103582869.262        2818.392          48.000    19384123.311    80564473.061        2192.124          44.000  
R 8  15657407.344    83844707.007       -1100.237          51.000    15657405.094    65212542.198        -855.807          49.000  
G30  20950939.195   110097931.524        2301.177          36.000    20950938.294    85790548.430        1792.866          35.000  
R 1  17473608.943    93406452.582        2197.285          48.000    17473610.304    72649469.857        1708.839          43.000  
> 2020  1  1 22 17  8.9880000  0  8                     
G27  19623240.591   103120827.959        1698.823          43.000    19623237.952    80353881.939        1323.563          40.000  
G 7  18399617.009    96690641.588        1350.359          49.000    18399612.397    75343337.310        1052.272          46.000  
G 9  16520570.571    86816183.338        -981.374          52.000    16520566.871    67648959.596        -764.586          49.000  
R 9  16073902.959    85833743.704       -3016.984          53.000    16073902.066    66759576.689       -2346.524          52.000  
R11  19383593.769   103580051.273        2817.725          48.000    19383595.869    80562281.291        2191.599          44.000  
R 8  15657612.834    83845807.901       -1101.434          51.000    15657610.672    65213398.448        -856.748          49.000  
G30  20950501.291   110095630.343        2300.736          36.000    20950500.167    85788755.271        1793.214          35.000  
R 1  17473198.000    93404255.820        2196.251          48.000    17473199.434    72647761.258        1708.220          43.000  
> 2020  1  1 22 17  9.9880000  0  8                     
G27  19622917.467   103119129.968        1697.480          43.000    19622914.830    80352558.822        1322.736          40.000  
G 7  18399360.220    96689291.882        1349.409          49.000    18399355.610    75342285.595        1051.409          46.000  
G 9  16520757.448    86817165.564        -982.727          52.000    16520753.745    67649724.971        -765.696          49.000  
R 9  16074468.047    85836761.421       -3018.191          53.000    16074467.338    66761923.803       -2347.580          52.000  
R11  19383066.544   103577234.183        2816.812          48.000    19383068.723    80560090.223        2190.918          44.000  
R 8  15657818.672    83846910.368       -1103.050          51.000    15657816.684    65214255.922        -857.990          49.000  
G30  20950063.603   110093329.943        2299.956          36.000    20950062.459    85786962.749        1792.179          35.000  
R 1  17472787.253    93402060.310        2194.996          48.000    17472788.685    72646053.640        1707.217          44.000  
> 2020  1  1 22 17 10.9880000  0  8                     
G27  19622594.505   103117432.814        1696.771          43.000    19622591.886    80351236.366        1322.206          40.000  
G 7  18399103.532    96687942.835        1348.711          49.000    18399098.895    75341234.385        1051.003          46.000  
G 9  16520944.607    86818148.776        -983.686          52.000    16520940.857    67650491.113        -766.597          49.000  
R 9  16075033.219    85839780.072       -3019.111          53.000    16075032.629    66764271.644       -2348.236          52.000  
R11  19382539.484   103574417.765        2816.064          48.000    19382541.552    80557899.671        2190.305          44.000  
R 8  15658024.949    83848014.148       -1104.443          52.000    15658022.733    65215114.407        -858.949          49.000  
G30  20949625.857   110091030.019        2299.406          35.000    20949624.777    85785170.596        1792.273          35.000  
R 1  17472376.596    93399865.765        2194.126          48.000    17472378.248    72644346.771        1706.329          44.000  
> 2020  1  1 22 17 11.9880000  0  8                     
G27  19622271.688   103115736.505        1695.681          43.000    19622269.107    80349914.563        1321.357          40.000  
G 7  18398846.970    96686594.438        1347.903          49.000    18398842.366    75340183.677        1050.563          46.000  
G 9  16521131.936    86819132.968        -984.688          52.000    16521128.104    67651258.009        -767.255          49.000  
R 9  16075598.675    85842799.644       -3020.128          53.000    16075598.102    66766620.200       -2349.025          52.000  
R11  19382012.461   103571602.000        2815.269          48.000    19382014.589    80555709.631        2189.724          44.000  
R 8  15658231.428    83849119.209       -1105.888          52.000    15658229.012    65215973.899        -860.063          49.000  
G30  20949188.259   110088730.598        2299.279          36.000    20949187.134    85783378.845        1791.524          35.000  
R 1  17471966.259    93397672.172        2192.960          48.000    17471967.908    72642640.644        1705.703          44.000  
> 2020  1  1 22 17 12.9880000  0  8                     
G27  19621949.034   103114041.056        1694.948          43.000    19621946.421    80348593.457        1320.522          40.000  
G 7  18398590.521    96685246.735        1347.167          49.000    18398585.845    75339133.526        1049.849          46.000  
G 9  16521319.419    86820118.200        -985.895          52.000    16521315.525    67652025.722        -768.181          49.000  
R 9  16076164.254    85845820.180       -3021.165          52.000    16076163.829    66768969.501       -2349.834          52.000  
R11  19381485.608   103568786.910        2814.698          48.000    19381487.721    80553520.121        2189.078          44.000  
R 8  15658437.960    83850225.621       -1107.237          52.000    15658435.653    65216834.438        -861.171          49.000  
G30  20948750.875   110086431.723        2298.093          36.000    20948749.690    85781587.476        1791.648          35.000  
R 1  17471556.018    93395479.598        2191.867          47.000    17471557.755    72640935.317        1704.682          44.000  
> 2020  1  1 22 17 13.9880000  0  8                     
G27  19621626.599   103112346.645        1693.995          42.000    19621624.045    80347273.140        1319.708          40.000  
G 7  18398334.220    96683899.856        1346.341          49.000    18398329.471    75338084.021        1049.085          46.000  
G 9  16521507.102    86821104.585        -987.158          52.000    16521503.220    67652794.340        -769.187          49.000  
R 9  16076730.129    85848841.821       -3022.297          52.000    16076729.668    66771319.668       -2350.734          52.000  
R11  19380959.036   103565972.609        2813.845          48.000    19380961.006    80551331.219        2188.586          44.000  
R 8  15658644.812    83851333.495       -1108.708          52.000    15658642.609    65217696.121        -862.261          49.000  
G30  20948313.554   110084133.493        2298.055          36.000    20948312.410    85779796.677        1790.756          35.000  
R 1  17471146.011    93393288.147        2190.797          47.000    17471147.815    72639230.852        1703.947          44.000  
> 2020  1  1 22 17 14.9880000  0  8                     
G27  19621304.427   103110653.300        1692.866          42.000    19621301.808    80345953.647        1319.261          41.000  
G 7  18398078.168    96682553.844        1345.620          49.000    18398073.375    75337035.170        1048.604          46.000  
G 9  16521694.995    86822092.173        -988.122          52.000    16521691.054    67653563.884        -770.013          49.000  
R 9  16077296.268    85851864.595       -3023.321          52.000    16077295.786    66773670.710       -2351.494          52.000  
R11  19380432.513   103563159.158        2812.978          48.000    19380434.368    80549142.968        2188.007          43.000  
R 8  15658852.003    83852442.900       -1110.176          51.000    15658849.839    65218558.990        -863.474          49.000  
G30  20947876.428   110081835.987        2297.023          36.000    20947875.219    85778006.409        1789.859          35.000  
R 1  17470736.274    93391097.883        2189.598          48.000    17470738.169    72637527.309        1703.218          44.000  
> 2020  1  1 22 17 15.9880000  0  8                     
G27  19620982.305   103108960.808        1692.236          42.000    19620979.686    80344634.839        1318.749          41.000  
G 7  18397822.086    96681208.518        1345.112          49.000    18397817.356    75335986.877        1047.996          46.000  
G 9  16521883.107    86823080.785        -989.040          52.000    16521879.181    67654334.234        -770.705          49.000  
R 9  16077862.562    85854888.319       -3024.112          52.000    16077861.978    66776022.492       -2351.967          52.000  
R11  19379906.069   103560346.372        2812.670          48.000    19379907.925    80546955.268        2187.458          43.000  
R 8  15659059.384    83853553.636       -1111.229          51.000    15659057.185    65219422.894        -864.237          49.000  
G30  20947439.301   110079539.003        2296.600          36.000    20947438.126    85776216.559        1789.697          35.000  
R 1  17470326.598    93388908.616        2188.868          48.000    17470328.575    72635824.562        1702.458          44.000  
> 2020  1  1 22 17 16.9880000  0  8                     
G27  19620660.337   103107269.248        1691.148          42.000    19620657.762    80343316.743        1317.649          41.000  
G 7  18397566.231    96679863.904        1344.347          49.000    18397561.486    75334939.120        1047.544          46.000  
G 9  16522071.499    86824070.436        -990.034          51.000    16522067.590    67655105.391        -771.529          49.000  
R 9  16078428.976    85857913.010       -3025.088          52.000    16078428.469    66778375.034       -2352.839          52.000  
R11  19379379.828   103557534.349        2811.781          48.000    19379381.565    80544768.134        2186.762          43.000  
R 8  15659267.008    83854665.722       -1112.759          51.000    15659265.025    65220287.856        -865.459          49.000  
G30  20947002.314   110077242.581        2295.911          36.000    20947001.217    85774427.124        1789.265          35.000  
R 1  17469917.255    93386720.391        2187.727          48.000    17469919.196    72634122.605        1701.735          44.000  
> 2020  1  1 22 17 17.9880000  0  8                     
G27  19620338.617   103105578.611        1690.008          42.000    19620336.074    80341999.353        1316.961          41.000  
G 7  18397310.517    96678520.027        1343.511          49.000    18397305.701    75333891.945        1046.944          46.000  
G 9  16522259.980    86825061.172        -991.287          51.000    16522256.080    67655877.395        -772.501          49.000  
R 9  16078995.547    85860938.740       -3026.239          52.000    16078995.033    66780728.379       -2353.731          52.000  
R11  19378853.764   103554723.051        2810.995          48.000    19378855.437    80542581.569        2186.303          43.000  
R 8  15659474.885    83855779.201       -1114.264          51.000    15659473.078    65221153.889        -866.587          49.000  
G30  20946565.383   110074946.714        2295.480          36.000    20946564.330    85772638.133        1789.263          35.000  
R 1  17469507.955    93384533.222        2186.692          48.000    17469509.980    72632421.477        1700.593          44.000  
> 2020  1  1 22 17 18.9880000  0  8                     
G27  19620017.053   103103888.659        1689.598          41.000    19620014.473    80340682.505        1316.527          41.000  
G 7  18397054.887    96677176.658        1343.191          50.000    18397049.986    75332845.157        1046.674          46.000  
G 9  16522448.627    86826052.746        -991.849          52.000    16522444.766    67656650.044        -772.862          49.000  
R 9  16079562.380    85863965.235       -3026.855          52.000    16079561.827    66783082.316       -2354.237          52.000  
R11  19378327.702   103551912.227        2810.577          48.000    19378329.283    80540395.366        2186.155          43.000  
R 8  15659683.101    83856893.829       -1115.228          51.000    15659681.260    65222020.825        -867.432          49.000  
G30  20946128.528   110072651.229        2295.176          36.000    20946127.477    85770849.463        1788.184          35.000  
R 1  17469098.933    93382346.889        2185.895          48.000    17469100.943    72630720.998        1700.088          44.000  
> 2020  1  1 22 17 19.9880000  0  8                     
G27  19619695.573   103102199.570        1688.713          41.000    19619693.093    80339366.333        1315.649          41.000  
G 7  18396799.397    96675833.969        1342.135          50.000    18396794.377    75331798.911        1045.894          46.000  
G 9  16522637.472    86827045.335        -993.124          52.000    16522633.682    67657423.492        -773.918          49.000  
R 9  16080129.268    85866992.670       -3028.049          52.000    16080128.835    66785436.987       -2355.111          52.000  
R11  19377801.907   103549102.048        2809.706          48.000    19377803.421    80538209.676        2185.332          43.000  
R 8  15659891.639    83858009.771       -1116.707          51.000    15659889.763    65222888.774        -868.498          49.000  
G30  20945691.855   110070356.203        2295.009          36.000    20945690.770    85769061.133        1788.112          35.000  
R 1  17468690.125    93380161.540        2184.723          48.000    17468692.183    72629021.279        1699.246          43.000  
> 2020  1  1 22 17 20.9880000  0  8                     
G27  19619374.319   103100511.493        1687.114          41.000    19619372.042    80338050.935        1314.686          41.000  
G 7  18396544.117    96674492.079        1340.966          49.000    18396539.002    75330753.282        1044.960          46.000  
G 9  16522826.649    86828039.071        -994.965          51.000    16522822.763    67658197.823        -775.197          49.000  
R 9  16080696.387    85870021.161       -3029.528          51.000    16080695.917    66787792.483       -2356.344          52.000  
R11  19377276.214   103546292.678        2808.442          47.000    19377277.704    80536024.613        2184.574          43.000  
R 8  15660100.415    83859127.173       -1118.594          51.000    15660098.527    65223757.868        -870.114          49.000  
G30  20945255.306   110068061.877        2293.580          36.000    20945254.254    85767273.345        1786.709          35.000  
R 1  17468281.566    93377977.323        2183.271          48.000    17468283.467    72627322.449        1697.943          43.000  
> 2020  1  1 22 17 21.9880000  0  8                     
G27  19619053.268   103098824.119        1687.022          41.000    19619050.970    80336736.111        1314.352          41.000  
G 7  18396288.948    96673150.718        1341.077          50.000    18396283.711    75329708.078        1044.893          46.000  
G 9  16523015.921    86829033.664        -995.153          51.000    16523011.893    67658972.842        -775.519          49.000  
R 9  16081263.803    85873050.488       -3029.856          52.000    16081263.308    66790148.626       -2356.477          52.000  
R11  19376750.499   103543483.850        2808.419          48.000    19376752.059    80533839.979        2184.510          42.000  
R 8  15660309.429    83860245.771       -1119.290          51.000    15660307.358    65224627.888        -870.535          49.000  
G30  20944818.787   110065767.900        2293.999          37.000    20944817.785    85765485.809        1788.087          35.000  
R 1  17467873.229    93375793.964        2182.939          48.000    17467875.043    72625624.279        1697.825          43.000  
> 2020  1  1 22 17 22.9880000  0  8                     
G27  19618732.436   103097138.014        1685.746          41.000    19618730.215    80335422.268        1313.489          41.000  
G 7  18396033.931    96671810.429        1339.945          50.000    18396028.732    75328663.692        1044.023          46.000  
G 9  16523205.370    86830029.664        -996.466          51.000    16523201.523    67659748.939        -776.510          49.000  
R 9  16081831.442    85876081.144       -3031.106          52.000    16081830.821    66792505.800       -2357.482          52.000  
R11  19376225.157   103540676.072        2807.451          48.000    19376226.486    80531656.158        2183.624          42.000  
R 8  15660518.691    83861366.086       -1120.959          51.000    15660516.511    65225499.240        -871.876          49.000  
G30  20944382.422   110063474.855        2292.717          37.000    20944381.477    85763699.035        1786.494          35.000  
R 1  17467465.037    93373611.993        2181.377          48.000    17467466.846    72623927.182        1696.669          43.000  
> 2020  1  1 22 17 23.9880000  0  8                     
G27  19618411.683   103095452.695        1684.992          41.000    19618409.609    80334109.017        1312.855          42.000  
G 7  18395779.015    96670470.721        1339.424          50.000    18395773.795    75327619.759        1043.815          46.000  
G 9  16523395.157    86831026.582        -997.258          51.000    16523391.238    67660525.763        -777.142          49.000  
R 9  16082399.072    85879112.633       -3031.837          52.000    16082398.601    66794863.629       -2358.113          52.000  
R11  19375699.823   103537868.854        2806.964          48.000    19375701.249    80529472.777        2183.208          42.000  
R 8  15660728.184    83862487.612       -1122.080          51.000    15660725.917    65226371.542        -872.758          49.000  
G30  20943946.122   110061182.235        2291.915          37.000    20943945.200    85761912.564        1786.489          34.000  
R 1  17467056.968    93371430.901        2180.544          48.000    17467058.844    72622230.787        1696.010          43.000  
> 2020  1  1 22 17 24.9880000  0  8                     
G27  19618091.242   103093768.265        1683.966          41.000    19618089.035    80332796.469        1312.245          41.000  
G 7  18395524.234    96669131.722        1338.667          50.000    18395519.033    75326576.382        1043.223          46.000  
G 9  16523585.070    86832024.558        -998.543          51.000    16523581.093    67661303.402        -778.090          49.000  
R 9  16082966.948    85882145.094       -3032.973          52.000    16082966.461    66797222.213       -2359.047          52.000  
R11  19375174.435   103535062.364        2805.961          48.000    19375176.007    80527289.946        2182.466          42.000  
R 8  15660937.971    83863610.481       -1123.574          51.000    15660935.639    65227244.887        -874.054          49.000  
G30  20943510.003   110058890.122        2291.737          37.000    20943508.992    85760126.520        1785.951          34.000  
R 1  17466649.198    93369250.835        2179.463          48.000    17466650.993    72620535.175        1695.160          43.000  
> 2020  1  1 22 17 25.9880000  0  8                     
G27  19617770.913   103092084.765        1682.970          41.000    19617768.703    80331484.660        1311.346          41.000  
G 7  18395269.574    96667793.471        1337.713          49.000    18395264.422    75325533.592        1042.303          46.000  
G 9  16523775.176    86833023.602        -999.702          50.000    16523771.175    67662081.876        -778.973          49.000  
R 9  16083535.075    85885178.576       -3034.104          51.000    16083534.517    66799581.590       -2359.953          52.000  
R11  19374649.344   103532256.595        2805.174          47.000    19374650.754    80525107.689        2181.827          42.000  
R 8  15661147.911    83864734.721       -1125.046          50.000    15661145.602    65228119.292        -875.076          49.000  
G30  20943073.928   110056598.637        2290.931          37.000    20943072.989    85758340.940        1784.990          34.000  
R 1  17466241.499    93367071.827        2178.359          47.000    17466243.402    72618840.388        1694.304          43.000  
> 2020  1  1 22 17 26.9880000  0  8                     
G27  19617450.698   103090401.901        1682.524          41.000    19617448.535    80330173.346        1310.817          42.000  
G 7  18395015.041    96666455.654        1337.523          50.000    18395009.859    75324491.136        1042.260          46.000  
G 9  16523965.421    86834023.411       -1000.277          51.000    16523961.380    67662860.946        -779.391          49.000  
R 9  16084103.247    85888212.745       -3034.596          52.000    16084102.671    66801941.498       -2360.247          52.000  
R11  19374124.397   103529451.237        2805.132          47.000    19374125.717    80522925.742        2181.849          43.000  
R 8  15661358.021    83865860.064       -1125.898          51.000    15661355.696    65228994.562        -875.797          49.000  
G30  20942637.878   110054307.380        2291.196          37.000    20942636.948    85756555.558        1785.468          35.000  
R 1  17465833.977    93364893.566        2177.811          48.000    17465836.077    72617146.205        1693.699          43.000  
> 2020  1  1 22 17 27.9880000  0  8                     
G27  19617130.666   103088719.947        1681.481          41.000    19617128.470    80328862.726        1310.345          42.000  
G 7  18394760.592    96665118.556        1336.875          50.000    18394755.441    75323449.245        1041.680          46.000  
G 9  16524155.891    86835024.274       -1001.281          51.000    16524151.917    67663640.846        -780.284          49.000  
R 9  16084671.648    85891247.935       -3035.789          51.000    16084671.101    66804302.200       -2361.013          52.000  
R11  19373599.520   103526646.578        2804.379          47.000    19373600.874    80520744.345        2181.266          43.000  
R 8  15661568.413    83866986.802       -1127.391          51.000    15661566.230    65229870.914        -876.868          49.000  
G30  20942202.077   110052016.738        2290.441          37.000    20942200.964    85754770.651        1784.744          35.000  
R 1  17465426.668    93362716.354        2176.788          47.000    17465428.715    72615452.807        1692.979          43.000  
> 2020  1  1 22 17 28.9880000  0  8                     
G27  19616810.865   103087038.852        1680.895          42.000    19616808.667    80327552.787        1309.755          42.000  
G 7  18394506.282    96663782.142        1336.286          50.000    18394501.077    75322407.886        1041.140          46.000  
G 9  16524346.622    86836026.158       -1002.188          51.000    16524342.491    67664421.532        -780.868          49.000  
R 9  16085240.298    85894284.067       -3036.431          52.000    16085239.575    66806663.642       -2361.671          52.000  
R11  19373074.752   103523842.598        2803.751          47.000    19373076.148    80518563.470        2180.640          43.000  
R 8  15661779.200    83868114.882       -1128.533          51.000    15661776.862    65230748.313        -877.818          49.000  
G30  20941766.267   110049726.587        2289.703          37.000    20941765.173    85752986.109        1784.614          35.000  
R 1  17465019.525    93360540.147        2175.808          48.000    17465021.649    72613760.208        1692.198          43.000  
> 2020  1  1 22 17 29.9880000  0  8                     
G27  19616491.065   103085358.558        1680.046          42.000    19616488.879    80326243.471        1309.130          42.000  
G 7  18394252.123    96662446.344        1335.540          50.000    18394246.939    75321367.007        1040.599          46.000  
G 9  16524537.442    86837028.997       -1003.356          51.000    16524533.447    67665202.960        -781.747          49.000  
R 9  16085808.983    85897321.081       -3037.400          52.000    16085808.404    66809025.766       -2362.464          52.000  
R11  19372550.092   103521039.238        2803.171          47.000    19372551.519    80516383.074        2180.366          43.000  
R 8  15661990.134    83869244.241       -1130.018          51.000    15661987.870    65231626.700        -878.841          49.000  
G30  20941330.562   110047436.893        2289.619          37.000    20941329.420    85751201.953        1783.486          35.000  
R 1  17464612.666    93358364.888        2174.631          48.000    17464614.751    72612068.341        1691.362          43.000  
> 2020  1  1 22 17 30.9880000  0  8                     
G27  19616171.494   103083678.902        1679.212          42.000    19616169.214    80324934.659        1308.367          42.000  
G 7  18393997.953    96661110.966        1335.136          50.000    18393992.752    75320326.453        1040.311          46.000  
G 9  16524728.471    86838032.592       -1004.118          51.000    16524724.457    67665984.989        -782.432          49.000  
R 9  16086377.930    85900358.779       -3038.123          52.000    16086377.319    66811388.419       -2363.012          52.000  
R11  19372025.607   103518236.288        2802.780          47.000    19372026.884    80514203.022        2179.595          43.000  
R 8  15662201.148    83870374.655       -1131.058          51.000    15662198.971    65232505.910        -879.637          49.000  
G30  20940894.925   110045147.468        2289.392          37.000    20940893.704    85749417.997        1783.739          35.000  
R 1  17464205.808    93356190.360        2173.930          48.000    17464208.059    72610377.060        1690.590          43.000  
> 2020  1  1 22 17 31.9880000  0  8                     
G27  19615851.952   103082000.050        1678.598          42.000    19615849.674    80323626.465        1307.898          42.000  
G 7  18393743.967    96659776.215        1334.573          50.000    18393738.744    75319286.386        1039.786          46.000  
G 9  16524919.625    86839037.144       -1004.992          51.000    16524915.539    67666767.754        -783.086          49.000  
R 9  16086946.920    85903397.383       -3038.995          52.000    16086946.361    66813751.775       -2363.640          52.000  
R11  19371501.229   103515433.934        2802.194          47.000    19371502.481    80512023.404        2179.394          43.000  
R 8  15662412.443    83871506.329       -1132.297          51.000    15662410.212    65233386.100        -880.654          49.000  
G30  20940459.381   110042858.504        2288.987          37.000    20940458.190    85747634.380        1783.253          35.000  
R 1  17463799.082    93354016.772        2173.200          48.000    17463801.370    72608686.472        1690.338          43.000  
> 2020  1  1 22 17 32.9880000  0  8                     
G27  19615532.560   103080321.973        1677.659          42.000    19615530.237    80322318.867        1307.299          42.000  
G 7  18393490.093    96658442.049        1333.772          50.000    18393484.836    75318246.772        1039.287          46.000  
G 9  16525111.022    86840042.612       -1006.080          51.000    16525107.008    67667551.238        -784.103          49.000  
R 9  16087516.190    85906436.827       -3040.092          52.000    16087515.592    66816115.787       -2364.426          52.000  
R11  19370976.913   103512632.131        2801.434          47.000    19370978.067    80509844.234        2178.643          43.000  
R 8  15662624.066    83872639.200       -1133.585          51.000    15662621.764    65234267.223        -881.735          49.000  
G30  20940023.959   110040570.003        2287.902          37.000    20940022.766    85745851.093        1782.853          35.000  
R 1  17463392.686    93351844.073        2172.096          48.000    17463394.951    72606996.597        1689.537          43.000  
> 2020  1  1 22 17 33.9880000  0  8                     
G27  19615213.394   103078644.690        1676.872          42.000    19615211.010    80321011.907        1306.536          42.000  
G 7  18393236.361    96657108.484        1333.422          50.000    18393231.155    75317207.629        1038.958          46.000  
G 9  16525302.475    86841049.020       -1006.880          51.000    16525298.473    67668335.447        -784.463          49.000  
R 9  16088085.462    85909477.134       -3040.622          52.000    16088084.917    66818480.473       -2364.968          52.000  
R11  19370452.752   103509830.911        2801.094          47.000    19370453.845    80507665.496        2178.547          43.000  
R 8  15662835.924    83873773.316       -1134.619          51.000    15662833.523    65235149.310        -882.604          49.000  
G30  20939588.600   110038281.890        2287.898          37.000    20939587.408    85744068.182        1782.650          35.000  
R 1  17462986.468    93349672.281        2171.568          48.000    17462988.656    72605307.435        1688.937          43.000  
> 2020  1  1 22 17 34.9880000  0  8                     
G27  19614894.228   103076968.064        1676.188          42.000    19614892.018    80319705.441        1306.062          42.000  
G 7  18392982.709    96655775.394        1332.658          50.000    18392977.402    75316168.858        1038.336          46.000  
G 9  16525494.184    86842056.235       -1007.686          51.000    16525490.135    67669120.298        -785.319          49.000  
R 9  16088654.963    85912518.189       -3041.593          52.000    16088654.336    66820845.737       -2365.625          52.000  
R11  19369928.660   103507030.183        2800.361          47.000    19369929.638    80505487.152        2178.044          43.000  
R 8  15663047.852    83874908.555       -1135.950          51.000    15663045.453    65236032.266        -883.390          49.000  
G30  20939153.236   110035994.109        2287.572          37.000    20939152.022    85742285.495        1782.385          35.000  
R 1  17462580.322    93347501.273        2170.546          48.000    17462582.584    72603618.886        1688.175          43.000  
> 2020  1  1 22 17 35.9880000  0  8                     
G27  19614575.267   103075292.263        1674.643          42.000    19614573.072    80318399.623        1304.651          42.000  
G 7  18392729.144    96654442.912        1331.434          49.000    18392723.800    75315130.558        1037.553          46.000  
G 9  16525686.001    86843064.405       -1009.372          51.000    16525681.975    67669905.878        -786.455          49.000  
R 9  16089224.625    85915560.138       -3043.204          52.000    16089224.090    66823211.704       -2366.916          52.000  
R11  19369404.492   103504230.103        2798.948          47.000    19369405.689    80503309.316        2177.021          43.000  
R 8  15663260.046    83876045.069       -1137.870          51.000    15663257.769    65236916.230        -885.037          49.000  
G30  20938717.965   110033706.794        2286.227          37.000    20938716.706    85740503.173        1781.707          35.000  
R 1  17462174.371    93345331.206        2168.915          48.000    17462176.573    72601931.053        1686.916          43.000  
> 2020  1  1 22 17 36.9880000  0  8                     
G27  19614256.475   103073617.203        1674.401          42.000    19614254.378    80317094.371        1304.937          42.000  
G 7  18392475.602    96653110.999        1331.436          50.000    18392470.450    75314092.708        1037.491          46.000  
G 9  16525878.001    86844073.461       -1009.698          51.000    16525873.885    67670692.161        -786.828          49.000  
R 9  16089794.471    85918602.897       -3043.416          52.000    16089793.910    66825578.290       -2367.037          52.000  
R11  19368880.486   103501430.539        2799.082          47.000    19368881.866    80501131.887        2176.894          43.000  
R 8  15663472.442    83877182.792       -1138.471          51.000    15663470.265    65237801.129        -885.631          49.000  
G30  20938282.703   110031419.865        2286.459          38.000    20938281.567    85738721.152        1781.577          35.000  
R 1  17461768.620    93343162.022        2168.461          48.000    17461770.787    72600243.913        1686.603          43.000  
> 2020  1  1 22 17 37.9880000  0  8                     
G27  19613937.840   103071942.943        1673.837          42.000    19613935.830    80315789.750        1304.462          42.000  
G 7  18392222.207    96651779.679        1330.965          50.000    18392217.113    75313055.313        1037.136          45.000  
G 9  16526070.107    86845083.459       -1010.379          51.000    16526066.067    67671479.175        -787.287          48.000  
R 9  16090364.386    85921646.510       -3044.096          52.000    16090363.876    66827945.545       -2367.565          52.000  
R11  19368356.679   103498631.539        2798.644          47.000    19368358.004    80498954.874        2176.966          43.000  
R 8  15663685.047    83878321.762       -1139.651          51.000    15663682.892    65238686.992        -886.386          49.000  
G30  20937847.589   110029133.386        2286.482          37.000    20937846.546    85736939.504        1781.178          35.000  
R 1  17461363.021    93340993.766        2167.854          48.000    17461365.027    72598557.499        1685.957          43.000  
> 2020  1  1 22 17 38.9880000  0  8                     
G27  19613619.241   103070269.487        1673.222          42.000    19613617.302    80314485.786        1303.616          42.000  
G 7  18391969.026    96650448.998        1330.437          50.000    18391963.930    75312018.414        1036.837          45.000  
G 9  16526262.489    86846094.447       -1011.441          51.000    16526258.449    67672266.956        -788.162          48.000  
R 9  16090934.487    85924691.034       -3044.794          52.000    16090934.084    66830313.513       -2368.277          52.000  
R11  19367832.874   103495833.183        2798.074          47.000    19367834.341    80496778.382        2176.271          43.000  
R 8  15663897.930    83879462.008       -1140.766          51.000    15663895.949    65239573.845        -887.136          49.000  
G30  20937412.669   110026847.404        2285.884          37.000    20937411.433    85735158.190        1781.273          35.000  
R 1  17460957.644    93338826.479        2166.862          48.000    17460959.460    72596871.823        1685.524          43.000  
> 2020  1  1 22 17 39.9880000  0  8                     
G27  19613300.956   103068596.875        1672.202          42.000    19613298.981    80313182.437        1303.063          40.000  
G 7  18391715.913    96649118.933        1329.832          50.000    18391710.797    75310982.005        1036.217          44.000  
G 9  16526454.978    86847106.378       -1012.436          51.000    16526451.110    67673055.471        -788.951          46.000  
R 9  16091504.898    85927736.460       -3045.938          52.000    16091504.443    66832682.171       -2368.998          50.000  
R11  19367309.249   103493035.464        2797.383          47.000    19367310.769    80494602.372        2175.821          41.000  
R 8  15664111.029    83880603.521       -1142.182          51.000    15664109.123    65240461.679        -888.249          48.000  
G30  20936977.775   110024561.884        2285.039          37.000    20936976.520    85733377.251        1781.151          33.000  
R 1  17460552.423    93336660.124        2165.908          48.000    17460554.205    72595186.877        1684.574          42.000  
> 2020  1  1 22 17 40.9880000  0  8                     
G27  19612982.767   103066925.019        1671.602          42.000    19612980.831    80311879.694        1302.475          41.000  
G 7  18391462.907    96647789.456        1329.276          49.000    18391457.787    75309946.043        1035.939          44.000  
G 9  16526647.768    86848119.226       -1013.168          51.000    16526643.772    67673844.704        -789.568          47.000  
R 9  16092075.400    85930782.726       -3046.588          52.000    16092074.959    66835051.479       -2369.460          51.000  
R11  19366785.694   103490238.292        2797.126          47.000    19366787.298    80492426.806        2175.417          41.000  
R 8  15664324.485    83881746.248       -1143.197          51.000    15664322.536    65241350.477        -889.291          48.000  
G30  20936542.846   110022276.755        2285.048          37.000    20936541.602    85731596.654        1780.912          34.000  
R 1  17460147.392    93334494.671        2165.150          48.000    17460149.105    72593502.625        1684.127          42.000  
> 2020  1  1 22 17 41.9880000  0  8                     
G27  19612664.672   103065253.630        1670.932          41.000    19612662.803    80310577.305        1302.055          41.000  
G 7  18391209.959    96646460.231        1328.925          49.000    18391204.760    75308910.289        1035.518          44.000  
G 9  16526840.596    86849132.662       -1013.837          51.000    16526836.678    67674634.393        -789.954          47.000  
R 9  16092645.927    85933829.506       -3047.248          53.000    16092645.463    66837421.202       -2370.099          51.000  
R11  19366262.348   103487441.359        2796.632          47.000    19366263.824    80490251.415        2175.234          42.000  
R 8  15664538.032    83882889.863       -1144.299          51.000    15664536.067    65242239.952        -890.043          48.000  
G30  20936108.024   110019991.743        2284.806          37.000    20936106.766    85729816.126        1780.308          34.000  
R 1  17459742.423    93332329.770        2164.465          48.000    17459744.164    72591818.823        1683.293          42.000  
> 2020  1  1 22 17 42.9880000  0  8                     
G27  19612346.797   103063583.063        1670.226          41.000    19612344.890    80309275.568        1301.307          41.000  
G 7  18390957.135    96645131.648        1328.418          49.000    18390952.028    75307875.029        1035.026          45.000  
G 9  16527033.554    86850147.077       -1014.978          51.000    16527029.653    67675424.849        -790.948          48.000  
R 9  16093216.635    85936877.191       -3048.052          53.000    16093216.207    66839791.629       -2370.764          51.000  
R11  19365738.964   103484645.059        2796.048          47.000    19365740.515    80488076.515        2174.561          42.000  
R 8  15664751.888    83884034.747       -1145.482          51.000    15664749.778    65243130.415        -890.901          48.000  
G30  20935673.329   110017707.204        2284.363          37.000    20935672.016    85728035.955        1780.315          35.000  
R 1  17459337.538    93330165.831        2163.436          48.000    17459339.321    72590135.754        1682.508          42.000  
> 2020  1  1 22 17 43.9880000  0  8                     
G27  19612029.007   103061913.190        1669.322          42.000    19612027.073    80307974.368        1300.645          41.000  
G 7  18390704.372    96643803.565        1327.668          49.000    18390699.302    75306840.160        1034.563          45.000  
G 9  16527226.775    86851162.318       -1015.847          51.000    16527222.941    67676215.949        -791.670          48.000  
R 9  16093787.534    85939925.638       -3048.951          53.000    16093787.155    66842162.645       -2371.415          51.000  
R11  19365215.861   103481849.255        2795.332          47.000    19365217.351    80485901.992        2174.325          42.000  
R 8  15664965.979    83885180.789       -1146.882          51.000    15664963.826    65244021.779        -891.843          48.000  
G30  20935238.683   110015423.019        2283.920          37.000    20935237.430    85726256.082        1779.600          34.000  
R 1  17458932.850    93328002.699        2162.565          48.000    17458934.549    72588453.317        1681.895          42.000  
> 2020  1  1 22 17 44.9880000  0  8                     
G27  19611711.299   103060244.065        1668.989          42.000    19611709.496    80306673.753        1300.464          41.000  
G 7  18390451.801    96642476.040        1327.545          49.000    18390446.679    75305805.735        1034.390          45.000  
G 9  16527420.181    86852178.464       -1016.443          51.000    16527416.140    67677007.746        -792.060          47.000  
R 9  16094358.511    85942974.934       -3049.560          52.000    16094358.164    66844534.317       -2371.829          51.000  
R11  19364692.844   103479053.997        2795.221          47.000    19364694.259    80483727.908        2174.168          42.000  
R 8  15665180.192    83886328.033       -1147.630          51.000    15665178.147    65244914.081        -892.607          48.000  
G30  20934804.092   110013139.227        2283.901          37.000    20934802.894    85724476.524        1779.723          34.000  
R 1  17458528.397    93325840.457        2162.081          48.000    17458530.013    72586771.572        1681.476          42.000  
> 2020  1  1 22 17 45.9880000  0  8                     
G27  19611393.869   103058575.704        1668.004          42.000    19611392.016    80305373.733        1299.448          42.000  
G 7  18390199.272    96641149.067        1326.633          50.000    18390194.234    75304771.720        1033.750          45.000  
G 9  16527613.759    86853195.494       -1017.484          51.000    16527609.783    67677800.234        -792.844          48.000  
R 9  16094929.737    85946025.027       -3050.579          53.000    16094929.305    66846906.608       -2372.625          52.000  
R11  19364169.899   103476259.300        2794.315          47.000    19364171.242    80481554.261        2173.364          44.000  
R 8  15665394.673    83887476.467       -1149.130          51.000    15665392.516    65245807.305        -893.712          49.000  
G30  20934369.664   110010855.847        2282.681          37.000    20934368.377    85722697.237        1779.080          35.000  
R 1  17458124.237    93323679.077        2160.892          48.000    17458125.809    72585090.497        1680.577          43.000  
> 2020  1  1 22 17 46.9880000  0  8                     
G27  19611076.441   103056908.022        1667.463          42.000    19611074.650    80304074.235        1299.487          43.000  
G 7  18389946.859    96639822.601        1326.387          50.000    18389941.818    75303738.111        1033.465          46.000  
G 9  16527807.437    86854213.368       -1018.120          52.000    16527803.475    67678593.384        -793.270          49.000  
R 9  16095501.020    85949075.888       -3051.112          53.000    16095500.544    66849279.493       -2373.027          53.000  
R11  19363646.935   103473465.080        2794.244          47.000    19363648.291    80479380.985        2173.252          44.000  
R 8  15665609.284    83888626.047       -1149.922          51.000    15665607.204    65246701.424        -894.422          49.000  
G30  20933935.354   110008572.799        2282.480          38.000    20933933.918    85720918.236        1778.970          36.000  
R 1  17457720.069    93321518.516        2160.344          48.000    17457721.717    72583410.058        1680.225          43.000  
> 2020  1  1 22 17 47.9880000  0  8                     
G27  19610759.254   103055240.942        1666.879          43.000    19610757.459    80302775.214        1298.961          43.000  
G 7  18389694.607    96638496.528        1326.105          50.000    18389689.352    75302704.814        1033.090          46.000  
G 9  16528001.216    86855231.969       -1018.846          52.000    16527997.319    67679387.097        -793.890          49.000  
R 9  16096072.436    85952127.397       -3051.684          53.000    16096071.963    66851652.897       -2373.656          53.000  
R11  19363123.970   103470671.212        2793.709          47.000    19363125.443    80477207.971        2172.912          44.000  
R 8  15665824.169    83889776.695       -1151.098          51.000    15665822.057    65247596.366        -895.164          49.000  
G30  20933500.994   110006289.964        2282.678          38.000    20933499.505    85719139.417        1778.718          36.000  
R 1  17457316.071    93319358.675        2159.579          48.000    17457317.758    72581730.170        1679.976          43.000  
> 2020  1  1 22 17 48.9880000  0  8                     
G27  19610442.212   103053574.576        1666.182          43.000    19610440.333    80301476.738        1298.509          43.000  
G 7  18389442.327    96637170.988        1325.378          50.000    18389437.123    75301671.918        1032.646          46.000  
G 9  16528195.254    86856251.455       -1019.862          52.000    16528191.392    67680181.504        -794.746          49.000  
R 9  16096643.956    85955179.728       -3052.675          53.000    16096643.535    66854026.926       -2374.453          52.000  
R11  19362601.219   103467877.870        2793.153          47.000    19362602.695    80475035.381        2172.338          44.000  
R 8  15666039.171    83890928.522       -1152.438          51.000    15666037.095    65248492.233        -896.230          50.000  
G30  20933066.624   110004007.515        2282.533          38.000    20933065.219    85717360.878        1778.754          36.000  
R 1  17456912.106    93317199.710        2158.393          48.000    17456913.760    72580050.985        1678.821          43.000  
> 2020  1  1 22 17 49.9880000  0  8                     
G27  19610125.274   103051908.779        1665.312          43.000    19610123.279    80300178.729        1297.595          42.000  
G 7  18389190.152    96635845.807        1324.897          50.000    18389184.920    75300639.320        1032.226          46.000  
G 9  16528389.384    86857271.620       -1020.561          52.000    16528385.595    67680976.434        -795.212          49.000  
R 9  16097215.675    85958232.679       -3053.396          53.000    16097215.178    66856401.446       -2374.856          52.000  
R11  19362078.609   103465084.919        2792.688          47.000    19362080.095    80472863.080        2171.970          44.000  
R 8  15666254.549    83892081.340       -1153.458          51.000    15666252.342    65249388.871        -897.128          50.000  
G30  20932632.234   110001725.283        2281.953          38.000    20932630.984    85715582.536        1778.157          36.000  
R 1  17456508.268    93315041.410        2157.852          48.000    17456509.948    72578372.304        1678.274          43.000  
> 2020  1  1 22 17 50.9880000  0  8                     
G27  19609808.396   103050243.731        1664.467          43.000    19609806.385    80298881.285        1296.961          42.000  
G 7  18388938.032    96634521.197        1324.219          50.000    18388932.827    75299607.147        1031.862          46.000  
G 9  16528583.733    86858292.699       -1021.609          52.000    16528579.846    67681772.080        -796.066          49.000  
R 9  16097787.672    85961286.451       -3054.263          53.000    16097787.032    66858776.599       -2375.572          52.000  
R11  19361556.023   103462292.539        2792.038          47.000    19361557.485    80470691.225        2171.585          44.000  
R 8  15666469.994    83893235.353       -1154.675          51.000    15666467.865    65250286.444        -898.154          50.000  
G30  20932197.953   109999443.449        2281.405          38.000    20932196.646    85713804.486        1777.684          36.000  
R 1  17456104.684    93312883.991        2156.870          48.000    17456106.408    72576694.314        1677.578          43.000  
> 2020  1  1 22 17 51.9880000  0  8                     
G27  19609491.625   103048579.421        1663.945          43.000    19609489.740    80297584.427        1296.499          42.000  
G 7  18388686.016    96633197.137        1323.740          49.000    18388680.930    75298575.413        1031.520          46.000  
G 9  16528778.174    86859314.651       -1022.323          52.000    16528774.388    67682568.414        -796.620          49.000  
R 9  16098359.761    85964341.041       -3055.016          53.000    16098359.026    66861152.394       -2376.075          52.000  
R11  19361033.661   103459500.658        2791.530          47.000    19361035.035    80468519.767        2171.302          44.000  
R 8  15666685.596    83894390.561       -1155.872          51.000    15666683.620    65251184.943        -899.039          50.000  
G30  20931763.798   109997162.015        2281.160          38.000    20931762.538    85712026.741        1777.369          36.000  
R 1  17455701.293    93310727.444        2156.099          48.000    17455703.021    72575017.007        1676.784          43.000  
> 2020  1  1 22 17 52.9880000  0  8                     
G27  19609175.113   103046915.796        1663.091          43.000    19609173.189    80296288.096        1295.991          42.000  
G 7  18388434.084    96631873.547        1323.297          49.000    18388429.116    75297544.046        1031.163          46.000  
G 9  16528972.774    86860337.434       -1023.177          52.000    16528968.927    67683365.383        -797.331          49.000  
R 9  16098931.995    85967396.346       -3055.719          53.000    16098931.255    66863528.739       -2376.660          52.000  
R11  19360511.187   103456709.204        2791.120          47.000    19360512.763    80466348.627        2170.997          44.000  
R 8  15666901.512    83895546.879       -1156.921          51.000    15666899.523    65252084.300        -899.851          49.000  
G30  20931329.810   109994880.905        2280.582          38.000    20931328.428    85710249.231        1777.422          36.000  
R 1  17455297.952    93308571.674        2155.455          48.000    17455299.783    72573340.284        1676.499          43.000  
> 2020  1  1 22 17 53.9880000  0  8                     
G27  19608858.687   103045252.920        1662.481          43.000    19608856.763    80294992.346        1295.425          44.000  
G 7  18388182.362    96630550.534        1322.584          49.000    18388177.428    75296513.124        1030.615          47.000  
G 9  16529167.581    86861361.104       -1024.191          52.000    16529163.710    67684163.047        -797.992          50.000  
R 9  16099504.268    85970452.501       -3056.715          53.000    16099503.578    66865905.755       -2377.504          53.000  
R11  19359988.911   103453918.338        2790.524          47.000    19359990.474    80464177.963        2170.301          46.000  
R 8  15667117.718    83896704.434       -1158.271          51.000    15667115.633    65252984.624        -901.029          50.000  
G30  20930895.910   109992600.170        2280.562          38.000    20930894.380    85708472.036        1777.201          36.000  
R 1  17454894.850    93306416.800        2154.405          48.000    17454896.571    72571664.279        1675.564          45.000  
> 2020  1  1 22 17 54.9880000  0  8                     
G27  19608542.460   103043590.692        1662.141          43.000    19608540.459    80293697.116        1295.109          43.000  
G 7  18387930.688    96629227.944        1322.789          49.000    18387925.705    75295482.543        1030.637          47.000  
G 9  16529362.536    86862385.573       -1024.746          52.000    16529358.672    67684961.336        -798.475          49.000  
R 9  16100076.785    85973509.388       -3056.871          53.000    16100076.058    66868283.334       -2377.623          52.000  
R11  19359466.779   103451127.955        2790.494          47.000    19359468.492    80462007.661        2170.516          45.000  
R 8  15667334.082    83897863.101       -1158.856          51.000    15667331.945    65253885.812        -901.405          50.000  
G30  20930462.005   109990319.761        2280.709          38.000    20930460.369    85706695.098        1777.136          37.000  
R 1  17454491.880    93304262.693        2154.115          48.000    17454493.545    72569988.854        1675.493          44.000  
> 2020  1  1 22 17 55.9880000  0  8                     
G27  19608226.249   103041928.944        1661.239          43.000    19608224.149    80292402.244        1294.479          43.000  
G 7  18387679.000    96627905.654        1322.044          49.000    18387674.196    75294452.189        1030.064          47.000  
G 9  16529557.539    86863410.646       -1025.590          52.000    16529553.689    67685760.096        -799.135          49.000  
R 9  16100649.393    85976566.833       -3057.866          53.000    16100648.584    66870661.351       -2378.374          52.000  
R11  19358944.767   103448337.816        2790.009          47.000    19358946.429    80459837.554        2170.047          44.000  
R 8  15667550.639    83899022.714       -1160.193          51.000    15667548.464    65254787.730        -902.339          50.000  
G30  20930028.088   109988039.479        2279.692          38.000    20930026.496    85704918.241        1776.886          36.000  
R 1  17454089.048    93302109.195        2153.001          48.000    17454090.702    72568313.906        1674.801          44.000  
> 2020  1  1 22 17 56.9880000  0  8                     
G27  19607910.209   103040267.744        1660.961          43.000    19607908.045    80291107.809        1294.368          43.000  
G 7  18387427.403    96626583.736        1321.615          49.000    18387422.582    75293422.118        1029.889          46.000  
G 9  16529752.737    86864436.436       -1026.343          52.000    16529748.915    67686559.410        -799.742          49.000  
R 9  16101221.911    85979624.890       -3058.502          53.000    16101221.253    66873039.842       -2378.914          52.000  
R11  19358422.641   103445547.999        2789.654          47.000    19358424.398    80457667.693        2169.611          44.000  
R 8  15667767.535    83900183.332       -1161.210          51.000    15667765.220    65255690.433        -903.209          50.000  
G30  20929594.221   109985759.402        2279.805          38.000    20929592.619    85703141.575        1776.584          36.000  
R 1  17453686.306    93299956.382        2152.432          48.000    17453688.068    72566639.510        1673.936          45.000  
> 2020  1  1 22 17 57.9880000  0  8                     
G27  19607594.195   103038607.938        1659.283          43.000    19607592.228    80289814.452        1292.868          43.000  
G 7  18387176.009    96625262.993        1320.282          49.000    18387171.338    75292392.968        1028.822          46.000  
G 9  16529948.252    86865463.737       -1028.027          52.000    16529944.491    67687359.906        -801.020          49.000  
R 9  16101794.815    85982684.388       -3060.133          53.000    16101794.118    66875419.450       -2380.034          53.000  
R11  19357900.861   103442759.367        2788.198          47.000    19357902.525    80455498.757        2168.521          44.000  
R 8  15667984.590    83901345.760       -1163.116          51.000    15667982.252    65256594.554        -904.735          50.000  
G30  20929160.464   109983480.336        2278.698          38.000    20929159.024    85701365.692        1775.396          36.000  
R 1  17453283.991    93297805.086        2150.676          48.000    17453285.564    72564966.281        1672.829          45.000  
> 2020  1  1 22 17 58.9880000  0  8                     
G27  19607278.489   103036949.141        1659.109          43.000    19607276.512    80288521.882        1292.737          43.000  
G 7  18386924.864    96623943.079        1320.086          49.000    18386920.140    75291364.473        1028.438          46.000  
G 9  16530143.985    86866492.204       -1028.587          52.000    16530140.229    67688161.307        -801.499          49.000  
R 9  16102367.964    85985744.993       -3060.555          53.000    16102367.155    66877799.917       -2380.454          53.000  
R11  19357379.101   103439971.592        2787.917          47.000    19357380.744    80453330.485        2168.416          44.000  
R 8  15668201.959    83902509.642       -1163.950          51.000    15668199.544    65257499.792        -905.356          50.000  
G30  20928726.818   109981201.937        2278.541          38.000    20928725.423    85699590.296        1776.093          36.000  
R 1  17452881.736    93295654.944        2150.136          48.000    17452883.430    72563293.948        1672.238          45.000  
> 2020  1  1 22 17 59.9880000  0  8                     
G27  19606962.715   103035290.143        1658.834          43.000    19606960.802    80287229.150        1292.738          43.000  
G 7  18386673.624    96622622.740        1320.409          49.000    18386668.931    75290335.627        1028.905          46.000  
G 9  16530339.567    86867520.579       -1028.530          51.000    16530335.999    67688962.633        -801.443          49.000  
R 9  16102941.090    85988805.419       -3060.527          52.000    16102940.229    66880180.247       -2380.482          52.000  
R11  19356857.409   103437183.377        2788.278          47.000    19356859.132    80451161.887        2168.426          44.000  
R 8  15668419.347    83903673.700       -1164.298          51.000    15668416.852    65258405.169        -905.686          50.000  
G30  20928293.084   109978922.965        2279.258          38.000    20928291.762    85697814.502        1775.433          36.000  
R 1  17452479.492    93293504.671        2150.079          48.000    17452481.229    72561621.503        1672.418          45.000  
> 2020  1  1 22 18  0.9880000  0  8                     
G27  19606647.072   103033631.518        1657.992          43.000    19606645.203    80285936.728        1291.785          42.000  
G 7  18386422.525    96621302.613        1319.503          49.000    18386417.627    75289306.962        1028.148          46.000  
G 9  16530535.429    86868549.488       -1029.699          52.000    16530531.768    67689764.382        -802.323          49.000  
R 9  16103514.222    85991866.308       -3061.606          52.000    16103513.499    66882560.931       -2381.228          52.000  
R11  19356335.671   103434395.314        2787.562          47.000    19356337.309    80448993.385        2168.025          44.000  
R 8  15668636.693    83904838.613       -1165.892          52.000    15668634.413    65259311.205        -906.705          50.000  
G30  20927859.413   109976644.021        2278.655          38.000    20927858.134    85696038.713        1774.858          36.000  
R 1  17452077.388    93291354.904        2148.976          48.000    17452079.153    72559949.476        1671.287          45.000  
> 2020  1  1 22 18  1.9880000  0  8                     
G27  19606331.603   103031973.699        1657.332          43.000    19606329.779    80284644.910        1291.427          42.000  
G 7  18386171.396    96619983.079        1319.047          49.000    18386166.773    75288278.749        1027.969          45.000  
G 9  16530731.427    86869579.341       -1030.493          51.000    16530727.858    67690566.867        -802.978          48.000  
R 9  16104087.584    85994928.064       -3062.288          52.000    16104086.841    66884942.296       -2381.763          52.000  
R11  19355813.952   103431607.826        2787.078          47.000    19355815.667    80446825.324        2167.917          44.000  
R 8  15668854.557    83906004.788       -1166.927          52.000    15668852.099    65260218.241        -907.678          50.000  
G30  20927425.848   109974365.555        2277.899          38.000    20927424.576    85694263.235        1775.474          35.000  
R 1  17451675.419    93289206.040        2148.221          48.000    17451677.166    72558278.140        1670.829          44.000  
> 2020  1  1 22 18  2.9880000  0  8                     
G27  19606016.178   103030316.592        1656.946          43.000    19606014.443    80283353.671        1290.901          42.000  
G 7  18385920.382    96618664.065        1318.875          49.000    18385915.789    75287250.951        1027.725          46.000  
G 9  16530927.630    86870610.044       -1031.051          51.000    16530924.039    67691370.011        -803.433          49.000  
R 9  16104661.058    85997990.588       -3062.791          52.000    16104660.269    66887324.259       -2382.169          52.000  
R11  19355292.429   103428820.866        2786.739          47.000    19355294.239    80444657.698        2167.547          44.000  
R 8  15669072.484    83907172.145       -1167.747          51.000    15669070.174    65261126.185        -908.387          50.000  
G30  20926992.297   109972087.426        2277.931          38.000    20926991.027    85692488.085        1775.432          36.000  
R 1  17451273.666    93287058.000        2147.661          48.000    17451275.335    72556607.447        1670.335          44.000  
> 2020  1  1 22 18  3.9880000  0  8                     
G27  19605701.067   103028660.185        1656.120          43.000    19605699.303    80282062.965        1290.351          42.000  
G 7  18385669.583    96617345.556        1318.425          49.000    18385664.829    75286223.540        1027.449          46.000  
G 9  16531123.879    86871641.585       -1031.619          51.000    16531120.285    67692173.809        -803.911          48.000  
R 9  16105234.620    86001053.891       -3063.531          52.000    16105233.922    66889706.830       -2382.724          52.000  
R11  19354770.965   103426034.426        2786.431          47.000    19354772.687    80442490.473        2167.131          44.000  
R 8  15669290.628    83908340.632       -1168.873          51.000    15669288.369    65262035.004        -909.126          50.000  
G30  20926558.973   109969809.638        2277.662          38.000    20926557.571    85690713.194        1775.133          36.000  
R 1  17450871.992    93284910.781        2146.806          48.000    17450873.645    72554937.384        1669.788          44.000  
> 2020  1  1 22 18  4.9880000  0  8                     
G27  19605385.992   103027004.437        1655.350          43.000    19605384.140    80280772.772        1289.842          42.000  
G 7  18385418.741    96616027.514        1317.797          49.000    18385413.922    75285196.497        1026.741          46.000  
G 9  16531320.426    86872673.938       -1032.936          51.000    16531316.703    67692978.242        -804.957          49.000  
R 9  16105808.423    86004117.903       -3064.444          52.000    16105807.736    66892089.951       -2383.371          52.000  
R11  19354249.724   103423248.431        2785.637          47.000    19354251.432    80440323.588        2166.656          44.000  
R 8  15669509.003    83909510.224       -1170.197          51.000    15669506.873    65262944.691        -910.179          50.000  
G30  20926125.651   109967532.163        2277.251          38.000    20926124.144    85688938.535        1774.548          36.000  
R 1  17450470.431    93282764.342        2145.971          48.000    17450472.128    72553267.930        1669.119          44.000  
> 2020  1  1 22 18  5.9880000  0  8                     
G27  19605071.102   103025349.446        1654.852          43.000    19605069.110    80279483.172        1289.324          42.000  
G 7  18385168.017    96614710.038        1317.472          49.000    18385163.202    75284169.896        1026.512          46.000  
G 9  16531517.033    86873707.186       -1033.471          51.000    16531513.380    67693783.366        -805.248          49.000  
R 9  16106382.312    86007182.737       -3065.071          52.000    16106381.593    66894473.714       -2383.963          52.000  
R11  19353728.459   103420462.958        2785.488          47.000    19353730.185    80438157.128        2166.211          44.000  
R 8  15669727.620    83910681.052       -1171.271          51.000    15669725.378    65263855.333        -910.933          50.000  
G30  20925692.310   109965255.085        2277.451          38.000    20925690.912    85687164.222        1774.046          36.000  
R 1  17450069.067    93280618.802        2145.292          48.000    17450070.698    72551599.185        1668.521          44.000  
> 2020  1  1 22 18  6.9880000  0  8                     
G27  19604756.318   103023695.051        1654.031          43.000    19604754.357    80278194.027        1288.922          42.000  
G 7  18384917.397    96613392.958        1316.879          49.000    18384912.582    75283143.602        1026.162          46.000  
G 9  16531713.768    86874741.168       -1034.358          51.000    16531710.111    67694589.067        -806.008          49.000  
R 9  16106956.283    86010248.240       -3065.957          52.000    16106955.569    66896857.997       -2384.592          52.000  
R11  19353207.248   103417677.871        2784.754          47.000    19353209.085    80435990.942        2165.960          44.000  
R 8  15669946.409    83911852.927       -1172.548          51.000    15669944.287    65264766.794        -911.947          50.000  
G30  20925259.079   109962978.286        2276.561          38.000    20925257.585    85685390.072        1773.721          36.000  
R 1  17449667.765    93278473.981        2144.343          49.000    17449669.545    72549930.997        1667.689          44.000  
> 2020  1  1 22 18  7.9880000  0  8                     
G27  19604441.744   103022041.140        1653.510          43.000    19604439.569    80276905.257        1288.433          42.000  
G 7  18384666.770    96612076.167        1316.522          49.000    18384661.993    75282117.522        1025.919          46.000  
G 9  16531910.654    86875775.774       -1034.996          51.000    16531907.016    67695395.253        -806.510          49.000  
R 9  16107530.574    86013314.313       -3066.552          52.000    16107529.764    66899242.716       -2385.019          52.000  
R11  19352686.144   103414893.079        2784.546          47.000    19352688.066    80433824.995        2165.690          44.000  
R 8  15670165.447    83913025.726       -1173.391          51.000    15670163.263    65265678.972        -912.686          50.000  
G30  20924825.884   109960701.589        2276.195          38.000    20924824.324    85683615.989        1774.124          36.000  
R 1  17449266.646    93276329.775        2143.675          49.000    17449268.462    72548263.276        1667.211          43.000  
> 2020  1  1 22 18  8.9880000  0  8                     
G27  19604127.186   103020387.808        1653.211          43.000    19604125.041    80275616.950        1288.095          42.000  
G 7  18384416.236    96610759.777        1316.206          49.000    18384411.616    75281091.767        1025.522          46.000  
G 9  16532107.562    86876811.115       -1035.653          51.000    16532104.074    67696202.011        -807.084          49.000  
R 9  16108104.891    86016381.013       -3066.885          52.000    16108103.989    66901627.934       -2385.461          52.000  
R11  19352165.109   103412108.688        2784.358          47.000    19352167.054    80431659.355        2165.611          44.000  
R 8  15670384.613    83914199.555       -1174.339          51.000    15670382.615    65266591.948        -913.439          50.000  
G30  20924392.798   109958425.105        2276.511          38.000    20924391.085    85681842.117        1773.877          36.000  
R 1  17448865.645    93274186.285        2143.159          49.000    17448867.413    72546596.109        1666.864          43.000  
> 2020  1  1 22 18  9.9880000  0  8                     
G27  19603812.650   103018734.895        1652.656          43.000    19603810.422    80274328.978        1287.520          42.000  
G 7  18384165.809    96609443.592        1315.829          49.000    18384161.108    75280066.171        1025.283          46.000  
G 9  16532304.731    86877847.010       -1036.536          51.000    16532301.212    67697009.196        -807.546          49.000  
R 9  16108679.200    86019448.199       -3067.679          52.000    16108678.362    66904013.522       -2386.012          52.000  
R11  19351644.114   103409324.504        2783.845          47.000    19351646.129    80429493.891        2165.118          44.000  
R 8  15670603.911    83915374.218       -1175.348          51.000    15670602.017    65267505.566        -914.087          50.000  
G30  20923959.621   109956148.717        2276.023          38.000    20923957.930    85680068.305        1773.336          36.000  
R 1  17448464.755    93272043.336        2142.314          49.000    17448466.508    72544929.365        1666.384          43.000  
> 2020  1  1 22 18 10.9880000  0  8                     
G27  19603498.260   103017082.621        1651.917          43.000    19603495.929    80273041.479        1287.190          42.000  
G 7  18383915.425    96608127.845        1315.333          49.000    18383910.739    75279040.917        1024.876          46.000  
G 9  16532501.994    86878883.671       -1037.227          51.000    16532498.490    67697816.984        -808.136          49.000  
R 9  16109253.791    86022516.044       -3068.218          52.000    16109252.955    66906399.625       -2386.510          52.000  
R11  19351123.097   103406540.717        2783.578          47.000    19351125.189    80427328.719        2165.006          44.000  
R 8  15670823.549    83916549.936       -1176.340          51.000    15670821.479    65268420.021        -915.080          50.000  
G30  20923526.495   109953872.570        2275.793          38.000    20923524.795    85678294.718        1773.013          36.000  
R 1  17448064.104    93269901.131        2141.760          49.000    17448065.770    72543263.210        1665.642          43.000  
> 2020  1  1 22 18 11.9880000  0  8                     
G27  19603184.036   103015431.229        1650.931          43.000    19603181.586    80271754.676        1286.402          42.000  
G 7  18383665.204    96606812.788        1314.740          49.000    18383660.491    75278016.194        1024.534          46.000  
G 9  16532699.456    86879921.347       -1038.238          51.000    16532695.917    67698625.569        -808.907          49.000  
R 9  16109828.292    86025584.873       -3069.202          52.000    16109827.644    66908786.492       -2387.186          52.000  
R11  19350602.313   103403757.573        2782.947          47.000    19350604.265    80425164.040        2164.658          44.000  
R 8  15671043.330    83917727.005       -1177.770          51.000    15671041.345    65269335.514        -915.979          50.000  
G30  20923093.511   109951596.989        2275.034          38.000    20923091.778    85676521.472        1773.258          36.000  
R 1  17447663.491    93267759.944        2140.591          49.000    17447665.152    72541597.835        1664.910          43.000  
> 2020  1  1 22 18 12.9880000  0  8                     
G27  19602869.929   103013780.512        1650.127          43.000    19602867.491    80270468.411        1285.836          42.000  
G 7  18383415.126    96605498.222        1313.956          49.000    18383410.273    75276991.861        1023.946          46.000  
G 9  16532897.069    86880959.857       -1039.204          51.000    16532893.446    67699434.801        -809.784          49.000  
R 9  16110403.219    86028654.453       -3070.205          52.000    16110402.494    66911173.942       -2387.919          52.000  
R11  19350081.647   103400974.901        2782.036          47.000    19350083.613    80422999.739        2163.944          44.000  
R 8  15671263.353    83918905.217       -1179.074          51.000    15671261.419    65270251.903        -916.987          50.000  
G30  20922660.582   109949321.708        2274.845          38.000    20922658.825    85674748.564        1772.565          36.000  
R 1  17447263.073    93265619.550        2139.665          48.000    17447264.707    72539933.090        1664.063          43.000  
> 2020  1  1 22 18 13.9880000  0  8                     
G27  19602556.032   103012130.707        1649.196          43.000    19602553.544    80269182.844        1285.204          42.000  
G 7  18383165.111    96604184.372        1313.393          49.000    18383160.278    75275968.081        1023.471          46.000  
G 9  16533094.822    86881999.417       -1040.189          51.000    16533091.276    67700244.847        -810.488          49.000  
R 9  16110978.246    86031725.006       -3071.110          52.000    16110977.481    66913562.149       -2388.590          52.000  
R11  19349561.062   103398192.977        2781.604          48.000    19349563.034    80420836.043        2163.198          44.000  
R 8  15671483.472    83920084.807       -1180.384          51.000    15671481.699    65271169.364        -917.993          50.000  
G30  20922227.636   109947047.002        2273.993          38.000    20922225.986    85672976.050        1772.188          36.000  
R 1  17446862.779    93263480.186        2138.824          48.000    17446864.483    72538269.132        1663.458          43.000  
> 2020  1  1 22 18 14.9880000  0  8                     
G27  19602242.146   103010481.484        1649.381          43.000    19602239.754    80267897.741        1285.138          42.000  
G 7  18382915.160    96602870.921        1313.626          50.000    18382910.271    75274944.619        1023.566          46.000  
G 9  16533292.764    86883039.696       -1040.382          51.000    16533289.215    67701055.451        -810.607          49.000  
R 9  16111553.375    86034796.201       -3071.098          52.000    16111552.583    66915950.862       -2388.730          52.000  
R11  19349040.578   103395411.465        2781.824          48.000    19349042.541    80418672.637        2163.608          44.000  
R 8  15671703.782    83921265.454       -1180.787          51.000    15671702.250    65272087.651        -918.436          50.000  
G30  20921794.882   109944772.512        2274.454          38.000    20921793.143    85671203.718        1772.626          35.000  
R 1  17446462.724    93261341.535        2138.623          48.000    17446464.446    72536605.736        1663.435          43.000  
> 2020  1  1 22 18 15.9880000  0  8                     
G27  19601928.395   103008832.452        1648.731          43.000    19601925.970    80266612.791        1284.524          42.000  
G 7  18382665.309    96601557.474        1313.185          50.000    18382660.375    75273921.148        1023.325          46.000  
G 9  16533490.789    86884080.297       -1040.936          51.000    16533487.246    67701866.310        -811.200          49.000  
R 9  16112128.524    86037867.643       -3071.615          52.000    16112127.764    66918339.758       -2389.136          52.000  
R11  19348519.952   103392629.894        2781.397          48.000    19348522.119    80416509.193        2163.169          44.000  
R 8  15671924.483    83922446.727       -1181.732          51.000    15671922.933    65273006.412        -919.107          50.000  
G30  20921362.010   109942497.862        2274.651          38.000    20921360.282    85669431.249        1772.751          35.000  
R 1  17446062.694    93259203.192        2137.840          48.000    17446064.343    72534942.575        1662.807          43.000  
> 2020  1  1 22 18 16.9880000  0  8                     
G27  19601614.786   103007183.869        1648.208          43.000    19601612.178    80265328.177        1284.148          42.000  
G 7  18382415.355    96600244.262        1312.940          49.000    18382410.490    75272897.872        1023.012          46.000  
G 9  16533688.979    86885121.489       -1041.573          51.000    16533685.388    67702677.627        -811.623          49.000  
R 9  16112703.761    86040939.625       -3072.301          52.000    16112703.032    66920729.083       -2389.637          52.000  
R11  19347999.591   103389848.532        2781.042          48.000    19348001.608    80414345.918        2162.838          44.000  
R 8  15672145.303    83923628.865       -1182.657          51.000    15672143.858    65273925.853        -919.909          50.000  
G30  20920929.095   109940223.312        2274.246          38.000    20920927.529    85667658.889        1772.283          35.000  
R 1  17445662.756    93257065.415        2137.271          48.000    17445664.436    72533279.865        1662.382          43.000  
> 2020  1  1 22 18 17.9880000  0  8                     
G27  19601301.129   103005535.756        1647.682          43.000    19601298.570    80264043.932        1283.939          42.000  
G 7  18382165.492    96598931.338        1312.626          49.000    18382160.707    75271874.803        1022.845          46.000  
G 9  16533887.244    86886163.292       -1042.220          51.000    16533883.655    67703489.419        -812.143          49.000  
R 9  16113279.151    86044012.135       -3072.949          52.000    16113278.472    66923118.806       -2390.032          52.000  
R11  19347479.150   103387067.473        2780.833          48.000    19347481.249    80412182.860        2162.805          44.000  
R 8  15672366.311    83924811.909       -1183.641          51.000    15672364.779    65274845.994        -920.597          50.000  
G30  20920496.257   109937948.878        2274.038          38.000    20920494.693    85665886.611        1772.078          35.000  
R 1  17445262.894    93254928.237        2136.768          48.000    17445264.546    72531617.619        1661.815          43.000  
> 2020  1  1 22 18 18.9880000  0  8                     
G27  19600987.670   103003888.343        1647.140          43.000    19600985.044    80262760.237        1283.302          42.000  
G 7  18381915.808    96597618.916        1312.140          50.000    18381910.912    75270852.147        1022.434          46.000  
G 9  16534085.685    86887205.959       -1043.184          51.000    16534082.026    67704301.889        -812.881          49.000  
R 9  16113854.674    86047085.382       -3073.679          52.000    16113854.084    66925509.117       -2390.671          51.000  
R11  19346958.720   103384286.908        2780.221          48.000    19346960.977    80410020.202        2162.259          44.000  
R 8  15672587.506    83925996.080       -1184.834          51.000    15672585.962    65275767.017        -921.555          50.000  
G30  20920063.495   109935674.794        2273.719          38.000    20920061.968    85664114.589        1771.880          35.000  
R 1  17444863.242    93252791.908        2135.735          48.000    17444864.886    72529956.027        1661.059          43.000  
> 2020  1  1 22 18 19.9880000  0  8                     
G27  19600674.269   103002241.535        1646.292          43.000    19600671.623    80261477.024        1282.819          42.000  
G 7  18381666.123    96596306.887        1311.801          49.000    18381661.274    75269829.799        1022.005          46.000  
G 9  16534284.288    86888249.342       -1043.941          51.000    16534280.574    67705114.920        -813.528          49.000  
R 9  16114430.238    86050159.291       -3074.364          52.000    16114429.772    66927899.937       -2391.189          51.000  
R11  19346438.562   103381506.719        2779.952          48.000    19346440.601    80407857.840        2161.957          44.000  
R 8  15672808.829    83927181.286       -1185.811          51.000    15672807.219    65276688.848        -922.334          50.000  
G30  20919630.874   109933400.950        2273.469          38.000    20919629.316    85662342.759        1771.900          36.000  
R 1  17444463.647    93250656.300        2135.121          48.000    17444465.467    72528294.992        1660.748          43.000  
> 2020  1  1 22 18 20.9880000  0  8                     
G27  19600361.040   103000595.310        1645.723          43.000    19600358.217    80260194.251        1282.308          42.000  
G 7  18381416.520    96594995.257        1311.357          50.000    18381411.658    75268807.735        1021.851          46.000  
G 9  16534482.990    86889293.457       -1044.469          51.000    16534479.212    67705928.514        -813.898          49.000  
R 9  16115005.970    86053233.860       -3075.010          52.000    16115005.381    66930291.267       -2391.689          51.000  
R11  19345918.337   103378726.921        2779.528          48.000    19345920.402    80405695.773        2161.859          44.000  
R 8  15673030.316    83928367.542       -1186.827          51.000    15673028.800    65277611.487        -923.099          50.000  
G30  20919198.380   109931127.341        2273.418          38.000    20919196.653    85660571.105        1771.609          35.000  
R 1  17444064.300    93248521.408        2134.508          48.000    17444066.126    72526634.531        1660.009          43.000  
> 2020  1  1 22 18 21.9880000  0  8                     
G27  19600047.785   102998949.483        1645.727          43.000    19600044.996    80258911.785        1282.516          42.000  
G 7  18381167.082    96593683.825        1311.347          50.000    18381162.123    75267785.841        1021.918          46.000  
G 9  16534681.714    86890338.118       -1044.850          51.000    16534677.975    67706742.532        -814.093          49.000  
R 9  16115581.845    86056308.921       -3075.095          52.000    16115581.096    66932682.978       -2391.767          51.000  
R11  19345398.030   103375947.300        2779.583          48.000    19345400.201    80403533.847        2161.978          44.000  
R 8  15673252.053    83929554.652       -1187.347          51.000    15673250.413    65278534.799        -923.549          50.000  
G30  20918765.708   109928853.756        2273.651          38.000    20918763.993    85658799.491        1772.039          35.000  
R 1  17443665.045    93246387.043        2134.094          48.000    17443666.829    72524974.471        1659.877          44.000  
> 2020  1  1 22 18 22.9880000  0  8                     
G27  19599734.554   102997304.045        1645.146          43.000    19599731.810    80257629.630        1281.989          42.000  
G 7  18380917.543    96592372.591        1310.856          50.000    18380912.608    75266764.103        1021.546          46.000  
G 9  16534880.655    86891383.311       -1045.738          51.000    16534876.877    67707556.976        -814.959          49.000  
R 9  16116157.758    86059384.403       -3075.928          52.000    16116157.019    66935075.019       -2392.414          51.000  
R11  19344877.990   103373167.855        2779.229          48.000    19344880.066    80401372.058        2161.392          44.000  
R 8  15673473.891    83930742.609       -1188.618          51.000    15673472.162    65279458.764        -924.447          50.000  
G30  20918333.019   109926580.252        2272.921          38.000    20918331.365    85657027.901        1771.971          35.000  
R 1  17443265.935    93244253.195        2133.287          48.000    17443267.696    72523314.810        1659.155          44.000  
> 2020  1  1 22 18 23.9880000  0  8                     
G27  19599421.475   102995659.141        1644.601          43.000    19599418.804    80256347.885        1281.427          42.000  
G 7  18380668.083    96591061.668        1310.711          50.000    18380663.172    75265742.610        1021.282          46.000  
G 9  16535079.719    86892429.149       -1046.245          51.000    16535075.952    67708371.909        -815.238          49.000  
R 9  16116733.776    86062460.430       -3076.325          52.000    16116733.115    66937467.486       -2392.738          51.000  
R11  19344358.076   103370388.712        2778.911          48.000    19344359.999    80399210.499        2161.250          43.000  
R 8  15673695.918    83931931.492       -1189.315          51.000    15673694.178    65280383.454        -925.130          50.000  
G30  20917900.398   109924306.866        2273.151          38.000    20917898.720    85655256.466        1771.261          36.000  
R 1  17442866.830    93242119.981        2132.662          48.000    17442868.764    72521655.643        1658.740          43.000  
> 2020  1  1 22 18 24.9880000  0  8                     
G27  19599108.597   102994014.642        1644.201          43.000    19599105.879    80255066.466        1281.075          42.000  
G 7  18380418.674    96589750.977        1310.429          50.000    18380413.645    75264721.288        1021.157          46.000  
G 9  16535278.858    86893475.538       -1046.711          51.000    16535274.996    67709187.273        -815.578          49.000  
R 9  16117309.933    86065536.969       -3076.936          52.000    16117309.309    66939860.345       -2393.105          51.000  
R11  19343838.031   103367609.789        2778.696          48.000    19343839.872    80397049.108        2161.146          43.000  
R 8  15673918.084    83933121.228       -1190.248          51.000    15673916.292    65281308.797        -925.739          50.000  
G30  20917467.860   109922033.555        2273.267          38.000    20917466.078    85653485.057        1771.205          36.000  
R 1  17442467.928    93239987.285        2132.361          48.000    17442469.779    72519996.881        1658.542          44.000  
> 2020  1  1 22 18 25.9880000  0  8                     
G27  19598795.723   102992370.683        1643.298          43.000    19598793.085    80253785.459        1280.408          42.000  
G 7  18380169.340    96588440.623        1309.849          50.000    18380164.317    75263700.232        1020.712          46.000  
G 9  16535478.067    86894522.613       -1047.672          51.000    16535474.233    67710003.180        -816.392          49.000  
R 9  16117886.183    86068614.099       -3077.667          52.000    16117885.440    66942253.670       -2393.808          51.000  
R11  19343318.104   103364831.193        2778.136          48.000    19343319.939    80394887.967        2160.891          43.000  
R 8  15674140.501    83934311.949       -1191.652          51.000    15674138.608    65282234.909        -926.663          50.000  
G30  20917035.362   109919760.454        2272.354          38.000    20917033.433    85651713.796        1770.753          36.000  
R 1  17442069.089    93237855.271        2131.306          48.000    17442070.872    72518338.651        1657.761          44.000  
> 2020  1  1 22 18 26.9880000  0  8                     
G27  19598483.011   102990727.402        1642.934          43.000    19598480.321    80252504.971        1280.332          42.000  
G 7  18379919.998    96587130.749        1309.667          50.000    18379915.037    75262679.553        1020.545          46.000  
G 9  16535677.528    86895570.500       -1048.216          51.000    16535673.652    67710819.713        -816.746          49.000  
R 9  16118462.487    86071691.971       -3078.247          52.000    16118461.839    66944647.570       -2394.203          51.000  
R11  19342798.236   103362053.037        2778.083          48.000    19342800.078    80392727.189        2160.636          43.000  
R 8  15674363.040    83935503.793       -1192.369          51.000    15674361.254    65283161.912        -927.443          50.000  
G30  20916602.885   109917487.640        2272.532          38.000    20916600.889    85649942.760        1771.294          36.000  
R 1  17441670.419    93235724.037        2130.838          48.000    17441672.149    72516681.011        1657.320          43.000  
> 2020  1  1 22 18 27.9880000  0  8                     
G27  19598170.488   102989084.689        1642.484          43.000    19598167.690    80251224.935        1279.887          42.000  
G 7  18379670.811    96585821.241        1309.342          50.000    18379665.837    75261659.149        1020.454          46.000  
G 9  16535877.039    86896619.094       -1048.912          51.000    16535873.236    67711636.802        -817.406          49.000  
R 9  16119039.062    86074770.481       -3078.766          52.000    16119038.279    66947041.969       -2394.597          51.000  
R11  19342278.370   103359275.232        2777.744          48.000    19342280.337    80390566.678        2160.268          43.000  
R 8  15674585.711    83936696.697       -1193.369          51.000    15674584.110    65284089.720        -928.137          50.000  
G30  20916170.407   109915215.033        2272.756          38.000    20916168.405    85648171.943        1770.609          35.000  
R 1  17441271.893    93233593.484        2130.382          48.000    17441273.627    72515023.929        1656.853          43.000  
> 2020  1  1 22 18 28.9880000  0  8                     
G27  19597857.976   102987442.370        1642.200          43.000    19597855.113    80249945.211        1279.708          42.000  
G 7  18379421.689    96584511.942        1309.256          50.000    18379416.666    75260638.918        1020.373          46.000  
G 9  16536076.646    86897668.233       -1049.359          52.000    16536072.865    67712454.311        -817.676          49.000  
R 9  16119615.596    86077849.425       -3079.024          52.000    16119614.841    66949436.703       -2394.905          51.000  
R11  19341758.717   103356497.646        2777.597          48.000    19341760.526    80388406.330        2160.190          43.000  
R 8  15674808.537    83937890.447       -1194.081          51.000    15674807.038    65285018.198        -928.691          50.000  
G30  20915738.027   109912942.487        2272.767          38.000    20915736.042    85646401.101        1771.180          35.000  
R 1  17440873.379    93231463.463        2129.731          48.000    17440875.063    72513367.247        1656.328          43.000  
> 2020  1  1 22 18 29.9880000  0  8                     
G27  19597545.606   102985800.555        1641.817          43.000    19597542.683    80248665.883        1279.204          42.000  
G 7  18379172.566    96583202.950        1308.859          50.000    18379167.572    75259618.929        1020.022          46.000  
G 9  16536276.494    86898718.011       -1050.050          52.000    16536272.601    67713272.318        -818.195          49.000  
R 9  16120192.330    86080928.924       -3079.839          52.000    16120191.633    66951831.862       -2395.391          51.000  
R11  19341238.919   103353720.393        2777.172          48.000    19341240.798    80386246.248        2160.034          43.000  
R 8  15675031.533    83939085.126       -1195.056          51.000    15675030.186    65285947.391        -929.512          50.000  
G30  20915305.630   109910670.096        2272.292          38.000    20915303.657    85644630.396        1770.745          36.000  
R 1  17440475.144    93229334.053        2129.142          48.000    17440476.720    72511711.042        1655.896          43.000  
> 2020  1  1 22 18 30.9880000  0  8                     
G27  19597233.342   102984159.266        1641.084          43.000    19597230.451    80247386.942        1278.752          42.000  
G 7  18378923.551    96581894.266        1308.564          50.000    18378918.621    75258599.179        1019.675          46.000  
G 9  16536476.294    86899768.433       -1050.765          52.000    16536472.546    67714090.833        -818.819          49.000  
R 9  16120769.210    86084008.980       -3080.371          52.000    16120768.411    66954227.464       -2395.728          51.000  
R11  19340719.375   103350943.418        2776.825          48.000    19340721.096    80384086.383        2159.715          43.000  
R 8  15675254.782    83940280.726       -1196.067          51.000    15675253.410    65286877.301        -930.322          50.000  
G30  20914873.226   109908397.851        2272.114          38.000    20914871.235    85642859.835        1770.275          36.000  
R 1  17440076.757    93227205.280        2128.338          48.000    17440078.527    72510055.323        1655.516          43.000  
> 2020  1  1 22 18 31.9880000  0  8                     
G27  19596921.095   102982518.208        1641.063          43.000    19596918.228    80246108.205        1278.860          42.000  
G 7  18378674.634    96580585.630        1308.720          50.000    18378669.548    75257579.472        1019.630          46.000  
G 9  16536676.310    86900819.239       -1050.998          52.000    16536672.470    67714909.638        -818.949          49.000  
R 9  16121346.065    86087089.349       -3080.575          52.000    16121345.347    66956623.308       -2396.003          52.000  
R11  19340199.761   103348166.425        2777.015          48.000    19340201.344    80381926.479        2160.057          43.000  
R 8  15675478.107    83941476.980       -1196.505          51.000    15675476.742    65287807.723        -930.633          50.000  
G30  20914440.823   109906125.485        2272.681          38.000    20914438.819    85641089.164        1770.784          36.000  
R 1  17439678.556    93225076.861        2128.293          48.000    17439680.296    72508399.883        1655.482          43.000  
> 2020  1  1 22 18 32.9880000  0  8                     
G27  19596608.909   102980877.456        1640.519          43.000    19596606.003    80244829.707        1278.295          42.000  
G 7  18378425.687    96579277.112        1308.368          50.000    18378420.556    75256559.845        1019.491          46.000  
G 9  16536876.294    86901870.489       -1051.502          52.000    16536872.573    67715728.796        -819.412          49.000  
R 9  16121922.889    86090170.072       -3080.908          52.000    16121922.364    66959019.426       -2396.392          52.000  
R11  19339680.092   103345389.516        2776.730          48.000    19339681.678    80379766.685        2159.445          43.000  
R 8  15675701.643    83942673.984       -1197.463          51.000    15675700.243    65288738.725        -931.481          49.000  
G30  20914008.355   109903853.090        2272.372          38.000    20914006.404    85639318.439        1770.886          36.000  
R 1  17439280.462    93222948.872        2127.686          48.000    17439282.201    72506744.778        1654.926          43.000  
> 2020  1  1 22 18 33.9880000  0  8                     
G27  19596296.721   102979237.284        1639.859          43.000    19596293.956    80243551.639        1277.905          42.000  
G 7  18378176.754    96577968.967        1307.830          50.000    18378171.640    75255540.502        1019.141          46.000  
G 9  16537076.506    86902922.456       -1052.397          52.000    16537072.825    67716548.505        -820.036          49.000  
R 9  16122499.990    86093251.446       -3081.803          52.000    16122499.380    66961416.043       -2396.963          52.000  
R11  19339160.627   103342613.003        2776.202          48.000    19339162.083    80377607.158        2159.257          42.000  
R 8  15675925.382    83943872.036       -1198.735          51.000    15675923.996    65289670.536        -932.415          49.000  
G30  20913575.856   109901580.902        2272.002          38.000    20913574.021    85637547.926        1770.294          36.000  
R 1  17438882.529    93220821.569        2126.869          48.000    17438884.217    72505090.212        1654.236          43.000  
> 2020  1  1 22 18 34.9880000  0  8                     
G27  19595984.821   102977597.815        1638.887          44.000    19595981.993    80242274.129        1277.359          42.000  
G 7  18377927.921    96576661.319        1307.203          50.000    18377922.786    75254521.559        1018.645          46.000  
G 9  16537276.836    86903975.253       -1053.347          52.000    16537273.135    67717368.872        -820.791          49.000  
R 9  16123077.059    86096333.566       -3082.685          52.000    16123076.468    66963813.244       -2397.631          52.000  
R11  19338641.074   103339836.969        2775.680          48.000    19338642.609    80375448.021        2158.954          42.000  
R 8  15676149.173    83945071.238       -1199.893          51.000    15676147.853    65290603.256        -933.251          49.000  
G30  20913143.491   109899309.064        2271.265          38.000    20913141.734    85635777.627        1770.157          36.000  
R 1  17438484.615    93218695.097        2125.792          48.000    17438486.410    72503436.294        1653.315          43.000  
> 2020  1  1 22 18 35.9880000  0  8                     
G27  19595672.953   102975959.077        1638.101          44.000    19595670.055    80240997.214        1276.252          42.000  
G 7  18377679.156    96575354.216        1306.693          50.000    18377673.978    75253503.048        1018.084          46.000  
G 9  16537477.382    86905028.943       -1054.255          52.000    16537473.673    67718189.932        -821.551          49.000  
R 9  16123654.536    86099416.507       -3083.557          52.000    16123653.795    66966211.081       -2398.283          52.000  
R11  19338121.676   103337061.499        2775.123          49.000    19338123.162    80373289.323        2158.671          42.000  
R 8  15676373.303    83946271.668       -1201.156          51.000    15676372.054    65291536.920        -934.171          49.000  
G30  20912711.113   109897037.593        2271.149          38.000    20912709.515    85634007.674        1769.574          36.000  
R 1  17438086.912    93216569.494        2125.132          48.000    17438088.697    72501783.062        1652.784          43.000  
> 2020  1  1 22 18 36.9880000  0  8                     
G27  19595361.209   102974320.889        1637.905          44.000    19595358.258    80239720.697        1276.365          42.000  
G 7  18377430.439    96574047.464        1306.629          50.000    18377425.393    75252484.799        1018.026          46.000  
G 9  16537677.906    86906083.312       -1054.572          51.000    16537674.262    67719011.512        -821.710          49.000  
R 9  16124232.008    86102500.032       -3083.876          52.000    16124231.232    66968609.376       -2398.515          52.000  
R11  19337602.315   103334286.371        2775.055          49.000    19337603.952    80371130.896        2158.417          42.000  
R 8  15676597.585    83947473.066       -1201.794          51.000    15676596.256    65292471.337        -934.664          49.000  
G30  20912278.866   109894766.332        2271.177          38.000    20912277.295    85632237.857        1769.900          36.000  
R 1  17437689.396    93214444.582        2124.570          48.000    17437691.121    72500130.335        1652.269          43.000  
> 2020  1  1 22 18 37.9880000  0  8                     
G27  19595049.596   102972683.201        1637.509          44.000    19595046.703    80238444.582        1276.030          42.000  
G 7  18377181.833    96572741.007        1306.379          50.000    18377176.686    75251466.777        1017.999          46.000  
G 9  16537878.712    86907138.318       -1055.233          51.000    16537875.041    67719833.593        -822.175          49.000  
R 9  16124809.574    86105584.111       -3084.237          52.000    16124808.792    66971008.103       -2398.791          52.000  
R11  19337083.001   103331511.534        2774.720          49.000    19337084.688    80368972.682        2158.347          42.000  
R 8  15676822.272    83948675.390       -1202.776          51.000    15676820.774    65293406.479        -935.387          50.000  
G30  20911846.675   109892495.212        2271.244          38.000    20911845.148    85630468.143        1769.844          36.000  
R 1  17437291.906    93212320.276        2124.166          48.000    17437293.731    72498478.107        1651.994          43.000  
> 2020  1  1 22 18 38.9880000  0  8                     
G27  19594737.885   102971045.816        1637.106          44.000    19594735.199    80237168.694        1275.763          42.000  
G 7  18376933.194    96571434.658        1306.188          50.000    18376928.028    75250448.839        1017.887          46.000  
G 9  16538079.562    86908193.754       -1055.753          52.000    16538075.932    67720656.020        -822.695          49.000  
R 9  16125387.271    86108668.566       -3084.711          52.000    16125386.389    66973407.123       -2399.127          51.000  
R11  19336563.803   103328736.737        2774.768          49.000    19336565.356    80366814.516        2158.282          43.000  
R 8  15677046.851    83949878.421       -1203.514          51.000    15677045.487    65294342.174        -936.013          50.000  
G30  20911414.481   109890224.029        2271.038          38.000    20911412.964    85628698.406        1769.674          36.000  
R 1  17436894.577    93210196.380        2123.773          48.000    17436896.360    72496826.190        1651.769          43.000  
> 2020  1  1 22 18 39.9880000  0  8                     
G27  19594426.401   102969408.806        1636.525          44.000    19594423.681    80235893.112        1275.084          42.000  
G 7  18376684.630    96570128.483        1305.838          50.000    18376679.488    75249431.050        1017.536          46.000  
G 9  16538280.497    86909249.702       -1056.293          52.000    16538276.849    67721478.837        -823.214          49.000  
R 9  16125964.933    86111753.443       -3085.290          52.000    16125964.016    66975806.472       -2399.637          51.000  
R11  19336044.603   103325962.113        2774.256          49.000    19336046.132    80364656.474        2157.895          43.000  
R 8  15677271.584    83951082.252       -1204.453          51.000    15677270.201    65295278.494        -936.778          49.000  
G30  20910982.260   109887952.883        2270.674          38.000    20910980.712    85626928.652        1769.637          36.000  
R 1  17436497.301    93208072.987        2122.978          48.000    17436499.064    72495174.651        1651.219          44.000  
> 2020  1  1 22 18 40.9880000  0  8                     
G27  19594115.091   102967772.411        1636.042          44.000    19594112.402    80234618.000        1275.005          42.000  
G 7  18376436.152    96568822.726        1305.642          50.000    18376430.992    75248413.568        1017.426          46.000  
G 9  16538481.670    86910306.410       -1056.979          52.000    16538477.921    67722302.248        -823.802          49.000  
R 9  16126542.760    86114839.002       -3085.828          52.000    16126541.808    66978206.362       -2400.159          51.000  
R11  19335525.465   103323187.929        2774.020          49.000    19335526.942    80362498.771        2157.565          43.000  
R 8  15677496.637    83952287.157       -1205.446          51.000    15677495.198    65296215.635        -937.548          49.000  
G30  20910549.976   109885681.974        2270.636          38.000    20910548.588    85625159.119        1769.340          36.000  
R 1  17436100.227    93205950.320        2122.353          48.000    17436102.019    72493523.701        1650.635          43.000  
> 2020  1  1 22 18 41.9880000  0  8                     
G27  19593803.782   102966136.279        1636.083          43.000    19593801.074    80233343.109        1274.584          42.000  
G 7  18376187.720    96567517.049        1305.619          50.000    18376182.550    75247396.163        1017.188          46.000  
G 9  16538682.921    86911363.523       -1057.359          52.000    16538679.065    67723125.958        -823.811          49.000  
R 9  16127120.632    86117924.873       -3086.074          52.000    16127119.800    66980606.478       -2400.255          51.000  
R11  19335006.474   103320413.793        2774.018          49.000    19335007.680    80360341.102        2157.718          43.000  
R 8  15677721.827    83953492.799       -1206.080          51.000    15677720.359    65297153.353        -937.932          49.000  
G30  20910117.760   109883410.982        2271.036          37.000    20910116.421    85623389.516        1769.739          36.000  
R 1  17435703.321    93203828.052        2122.047          48.000    17435705.020    72491873.042        1650.488          44.000  
> 2020  1  1 22 18 42.9880000  0  8                     
G27  19593492.476   102964500.574        1635.265          43.000    19593489.834    80232068.529        1273.936          42.000  
G 7  18375939.293    96566211.572        1305.091          50.000    18375934.102    75246378.903        1016.932          46.000  
G 9  16538884.127    86912421.186       -1058.350          52.000    16538880.307    67723950.120        -824.694          49.000  
R 9  16127698.649    86121011.213       -3086.879          52.000    16127697.768    66983006.969       -2400.923          51.000  
R11  19334487.276   103317639.818        2773.621          49.000    19334488.536    80358183.577        2157.182          43.000  
R 8  15677947.130    83954699.312       -1207.246          51.000    15677945.581    65298091.755        -938.948          49.000  
G30  20909685.484   109881140.057        2270.250          37.000    20909684.272    85621619.949        1769.111          36.000  
R 1  17435306.334    93201706.314        2121.100          48.000    17435308.112    72490222.803        1649.740          44.000  
> 2020  1  1 22 18 43.9880000  0  8                     
G27  19593181.324   102962865.464        1634.825          43.000    19593178.662    80230794.407        1273.887          42.000  
G 7  18375690.931    96564906.506        1304.933          50.000    18375685.831    75245361.983        1016.520          46.000  
G 9  16539085.463    86913479.587       -1058.729          52.000    16539081.758    67724774.846        -824.996          49.000  
R 9  16128276.811    86124098.203       -3087.307          52.000    16128275.946    66985407.969       -2401.197          51.000  
R11  19333968.271   103314866.250        2773.431          49.000    19333969.419    80356026.361        2157.156          43.000  
R 8  15678172.777    83955906.880       -1208.035          51.000    15678171.066    65299030.976        -939.552          49.000  
G30  20909253.382   109878869.352        2270.719          37.000    20909252.101    85619850.598        1769.010          36.000  
R 1  17434909.514    93199585.304        2120.519          49.000    17434911.419    72488573.133        1649.340          44.000  
> 2020  1  1 22 18 44.9880000  0  8                     
G27  19592870.368   102961230.963        1634.196          43.000    19592867.625    80229520.770        1273.386          42.000  
G 7  18375442.627    96563601.854        1304.308          50.000    18375437.543    75244345.361        1016.177          46.000  
G 9  16539287.014    86914538.731       -1059.599          52.000    16539283.276    67725600.152        -825.644          49.000  
R 9  16128855.100    86127185.879       -3088.073          52.000    16128854.199    66987809.498       -2401.874          51.000  
R11  19333449.243   103312093.089        2772.914          49.000    19333450.379    80353869.447        2156.841          43.000  
R 8  15678398.452    83957115.486       -1209.164          51.000    15678396.706    65299971.004        -940.618          49.000  
G30  20908821.197   109876598.906        2270.336          37.000    20908820.000    85618081.411        1769.010          36.000  
R 1  17434512.809    93197465.019        2119.950          49.000    17434514.859    72486924.030        1648.647          44.000  
> 2020  1  1 22 18 45.9880000  0  8                     
G27  19592559.409   102959596.994        1633.822          43.000    19592556.588    80228247.550        1272.968          42.000  
G 7  18375194.453    96562297.518        1304.167          50.000    18375189.327    75243328.997        1016.316          46.000  
G 9  16539488.764    86915598.540       -1060.108          52.000    16539485.029    67726425.983        -826.131          49.000  
R 9  16129433.376    86130274.146       -3088.508          52.000    16129432.478    66990211.480       -2402.130          52.000  
R11  19332930.394   103309320.246        2772.698          49.000    19332931.576    80351712.798        2156.509          43.000  
R 8  15678624.232    83958325.034       -1209.949          51.000    15678622.598    65300911.763        -941.078          49.000  
G30  20908389.127   109874328.650        2270.436          37.000    20908388.001    85616312.366        1768.942          36.000  
R 1  17434116.328    93195345.404        2119.247          49.000    17434118.445    72485275.425        1648.506          44.000  
> 2020  1  1 22 18 46.9880000  0  8                     
G27  19592248.580   102957963.457        1633.333          43.000    19592245.772    80226974.657        1272.725          42.000  
G 7  18374946.334    96560993.435        1303.977          50.000    18374941.156    75242312.830        1016.107          46.000  
G 9  16539690.593    86916658.930       -1060.611          52.000    16539686.800    67727252.261        -826.573          49.000  
R 9  16130011.791    86133362.886       -3089.009          52.000    16130010.973    66992613.832       -2402.578          52.000  
R11  19332411.570   103306547.627        2772.503          49.000    19332412.510    80349556.313        2156.449          43.000  
R 8  15678850.260    83959535.463       -1210.819          51.000    15678848.580    65301853.197        -941.669          49.000  
G30  20907957.091   109872058.469        2269.961          37.000    20907955.972    85614543.387        1768.910          36.000  
R 1  17433719.955    93193226.336        2118.850          48.000    17433722.057    72483627.264        1648.008          44.000  
> 2020  1  1 22 18 47.9880000  0  8                     
G27  19591937.886   102956330.288        1632.941          43.000    19591934.988    80225702.057        1272.386          42.000  
G 7  18374698.161    96559689.515        1303.689          50.000    18374693.004    75241296.786        1015.875          46.000  
G 9  16539892.371    86917719.820       -1061.332          51.000    16539888.671    67728078.923        -826.936          49.000  
R 9  16130590.348    86136452.075       -3089.519          52.000    16130589.444    66995016.538       -2402.994          52.000  
R11  19331892.711   103303775.148        2772.332          49.000    19331893.535    80347399.940        2156.194          43.000  
R 8  15679076.575    83960746.696       -1211.856          51.000    15679074.766    65302795.270        -942.507          49.000  
G30  20907525.102   109869788.300        2270.073          36.000    20907523.961    85612774.416        1768.956          36.000  
R 1  17433323.569    93191107.751        2118.247          48.000    17433325.740    72481979.472        1647.612          44.000  
> 2020  1  1 22 18 48.9880000  0  8                     
G27  19591627.161   102954697.472        1632.700          43.000    19591624.297    80224429.735        1272.084          42.000  
G 7  18374450.082    96558385.748        1303.612          50.000    18374444.929    75240280.872        1015.856          46.000  
G 9  16540094.287    86918781.195       -1061.630          51.000    16540090.654    67728905.970        -827.224          49.000  
R 9  16131168.892    86139541.652       -3089.626          52.000    16131168.018    66997419.536       -2403.081          52.000  
R11  19331373.929   103301002.818        2772.275          49.000    19331374.683    80345243.678        2156.250          43.000  
R 8  15679302.933    83961958.721       -1212.444          51.000    15679300.998    65303737.957        -942.938          49.000  
G30  20907093.007   109867518.117        2270.198          36.000    20907091.979    85611005.461        1768.876          36.000  
R 1  17432927.332    93188989.628        2117.904          48.000    17432929.501    72480332.044        1647.165          44.000  
> 2020  1  1 22 18 49.9880000  0  8                     
G27  19591316.528   102953064.999        1632.461          43.000    19591313.644    80223157.679        1272.016          42.000  
G 7  18374201.927    96557082.128        1303.401          50.000    18374196.895    75239265.064        1015.732          46.000  
G 9  16540296.389    86919843.054       -1062.130          51.000    16540292.787    67729733.398        -827.695          49.000  
R 9  16131747.520    86142631.608       -3090.260          52.000    16131746.858    66999822.841       -2403.544          52.000  
R11  19330855.187   103298230.632        2772.104          49.000    19330855.831    80343087.538        2156.051          43.000  
R 8  15679529.482    83963171.541       -1213.278          51.000    15679527.501    65304681.260        -943.554          49.000  
G30  20906660.862   109865247.936        2270.049          36.000    20906660.015    85609236.496        1768.613          36.000  
R 1  17432531.259    93186871.957        2117.436          48.000    17432533.282    72478684.966        1646.825          44.000  
> 2020  1  1 22 18 50.9880000  0  8                     
G27  19591006.002   102951433.052        1631.563          43.000    19591003.116    80221886.032        1271.573          42.000  
G 7  18373953.868    96555778.830        1302.978          50.000    18373948.871    75238249.505        1015.444          46.000  
G 9  16540498.597    86920905.572       -1062.974          51.000    16540494.985    67730561.332        -828.287          49.000  
R 9  16132326.304    86145722.138       -3090.931          52.000    16132325.606    67002226.585       -2404.050          52.000  
R11  19330336.401   103295458.754        2771.619          49.000    19330337.189    80340931.634        2155.619          42.000  
R 8  15679756.210    83964385.320       -1214.427          51.000    15679754.233    65305625.319        -944.545          49.000  
G30  20906228.907   109862977.917        2269.360          36.000    20906227.951    85607467.600        1769.116          36.000  
R 1  17432135.299    93184754.920        2116.584          48.000    17432137.167    72477038.385        1646.184          44.000  
> 2020  1  1 22 18 51.9880000  0  8                     
G27  19590695.556   102949801.541        1631.426          43.000    19590692.663    80220614.736        1271.016          42.000  
G 7  18373705.881    96554475.772        1303.032          50.000    18373700.960    75237234.139        1015.354          46.000  
G 9  16540700.833    86921968.661       -1063.240          51.000    16540697.349    67731389.721        -828.660          49.000  
R 9  16132905.154    86148813.167       -3091.083          52.000    16132904.390    67004630.720       -2404.206          52.000  
R11  19329817.757   103292687.081        2771.672          49.000    19329818.486    80338775.887        2155.806          42.000  
R 8  15679983.012    83965599.971       -1214.984          51.000    15679980.997    65306570.051        -945.017          49.000  
G30  20905796.862   109860707.950        2270.331          36.000    20905795.963    85605698.835        1768.929          36.000  
R 1  17431739.294    93182638.444        2116.345          48.000    17431741.220    72475392.226        1646.270          44.000  
> 2020  1  1 22 18 52.9880000  0  8                     
G27  19590385.272   102948170.438        1630.809          43.000    19590382.257    80219343.744        1270.838          42.000  
G 7  18373457.959    96553172.921        1302.628          50.000    18373452.986    75236218.932        1015.063          46.000  
G 9  16540903.214    86923032.297       -1063.955          51.000    16540899.694    67732218.522        -829.061          49.000  
R 9  16133484.236    86151904.641       -3091.779          52.000    16133483.398    67007035.201       -2404.723          52.000  
R11  19329299.144   103289915.606        2771.286          49.000    19329299.826    80336620.291        2155.497          42.000  
R 8  15680210.045    83966815.483       -1216.056          51.000    15680208.106    65307515.440        -945.729          49.000  
G30  20905364.962   109858438.082        2269.510          36.000    20905363.888    85603930.043        1769.187          36.000  
R 1  17431343.597    93180522.499        2115.528          48.000    17431345.367    72473746.493        1645.522          44.000  
> 2020  1  1 22 18 53.9880000  0  8                     
G27  19590075.037   102946539.833        1630.483          44.000    19590071.907    80218073.143        1270.453          42.000  
G 7  18373210.085    96551870.374        1302.628          50.000    18373205.077    75235203.969        1014.999          46.000  
G 9  16541105.700    86924096.571       -1064.338          52.000    16541102.236    67733047.824        -829.333          49.000  
R 9  16134063.206    86154996.684       -3092.090          52.000    16134062.430    67009440.119       -2404.931          52.000  
R11  19328780.511   103287144.426        2771.251          49.000    19328781.083    80334464.928        2155.421          42.000  
R 8  15680437.187    83968031.940       -1216.749          51.000    15680435.304    65308461.573        -946.265          49.000  
G30  20904932.906   109856168.292        2270.398          36.000    20904931.887    85602161.449        1768.329          36.000  
R 1  17430947.843    93178407.186        2115.182          48.000    17430949.745    72472101.262        1645.094          44.000  
> 2020  1  1 22 18 54.9880000  0  8                     
G27  19589764.736   102944909.678        1630.062          44.000    19589761.709    80216802.895        1270.264          42.000  
G 7  18372962.241    96550568.084        1302.256          50.000    18372957.208    75234189.191        1014.792          46.000  
G 9  16541308.368    86925161.427       -1064.961          51.000    16541305.001    67733877.585        -829.916          49.000  
R 9  16134642.302    86158089.215       -3092.592          52.000    16134641.636    67011845.424       -2405.400          52.000  
R11  19328261.872   103284373.474        2770.980          49.000    19328262.547    80332309.743        2155.356          42.000  
R 8  15680664.520    83969249.287       -1217.635          51.000    15680662.644    65309408.404        -947.128          49.000  
G30  20904500.814   109853898.659        2269.646          36.000    20904499.839    85600392.880        1768.278          36.000  
R 1  17430552.264    93176292.460        2114.530          48.000    17430554.126    72470456.470        1644.670          44.000  
> 2020  1  1 22 18 55.9880000  0  8                     
G27  19589454.606   102943279.928        1629.594          44.000    19589451.633    80215532.973        1269.611          42.000  
G 7  18372714.467    96549265.987        1302.058          51.000    18372709.440    75233174.568        1014.714          46.000  
G 9  16541511.152    86926226.833       -1065.646          52.000    16541507.739    67734707.765        -830.400          49.000  
R 9  16135221.646    86161182.196       -3093.222          52.000    16135220.754    67014251.073       -2405.784          52.000  
R11  19327743.316   103281602.678        2770.760          49.000    19327744.071    80330154.696        2154.952          42.000  
R 8  15680892.088    83970467.465       -1218.494          51.000    15680890.166    65310355.869        -947.791          49.000  
G30  20904068.822   109851629.028        2269.646          36.000    20904067.959    85598624.318        1768.619          36.000  
R 1  17430156.711    93174178.275        2113.934          48.000    17430158.631    72468812.112        1644.074          44.000  
> 2020  1  1 22 18 56.9880000  0  8                     
G27  19589144.581   102941650.494        1629.229          44.000    19589141.656    80214263.282        1269.342          42.000  
G 7  18372466.725    96547964.020        1301.838          50.000    18372461.713    75232160.053        1014.506          46.000  
G 9  16541714.034    86927292.681       -1066.041          52.000    16541710.499    67735538.305        -830.826          49.000  
R 9  16135800.911    86164275.562       -3093.670          52.000    16135800.153    67016657.030       -2406.174          52.000  
R11  19327224.858   103278831.989        2770.599          49.000    19327225.426    80327999.714        2154.817          42.000  
R 8  15681119.775    83971686.387       -1219.329          51.000    15681117.819    65311303.922        -948.406          49.000  
G30  20903636.939   109849359.396        2269.518          37.000    20903636.105    85596855.753        1768.818          36.000  
R 1  17429761.225    93172064.544        2113.449          48.000    17429763.313    72467168.104        1643.674          44.000  
> 2020  1  1 22 18 57.9880000  0  8                     
G27  19588834.529   102940021.390        1628.848          44.000    19588831.655    80212993.843        1269.342          42.000  
G 7  18372218.959    96546662.172        1301.661          50.000    18372214.000    75231145.624        1014.389          46.000  
G 9  16541916.975    86928359.008       -1066.665          51.000    16541913.438    67736369.196        -831.073          49.000  
R 9  16136380.300    86167369.290       -3093.898          52.000    16136379.581    67019063.261       -2406.385          52.000  
R11  19326706.337   103276061.473        2770.289          49.000    19326706.865    80325844.848        2155.085          42.000  
R 8  15681347.603    83972906.056       -1220.088          51.000    15681345.596    65312252.551        -948.950          49.000  
G30  20903205.066   109847089.685        2269.727          36.000    20903204.208    85595087.177        1768.563          37.000  
R 1  17429365.849    93169951.264        2112.959          48.000    17429367.937    72465524.437        1643.251          44.000  
> 2020  1  1 22 18 58.9880000  0  8                     
G27  19588524.549   102938392.684        1628.296          44.000    19588521.712    80211724.719        1268.781          42.000  
G 7  18371971.230    96545360.517        1301.509          50.000    18371966.265    75230131.359        1014.099          46.000  
G 9  16542119.862    86929425.850       -1067.196          51.000    16542116.504    67737200.505        -831.577          49.000  
R 9  16136959.757    86170463.485       -3094.443          53.000    16136959.087    67021469.861       -2406.853          52.000  
R11  19326187.820   103273291.151        2770.185          49.000    19326188.372    80323690.170        2154.491          42.000  
R 8  15681575.662    83974126.553       -1220.944          51.000    15681573.467    65313201.829        -949.622          49.000  
G30  20902773.313   109844820.046        2269.836          36.000    20902772.392    85593318.641        1768.136          37.000  
R 1  17428970.614    93167838.494        2112.473          48.000    17428972.779    72463881.163        1643.116          44.000  
> 2020  1  1 22 18 59.9880000  0  8                     
G27  19588214.690   102936764.303        1628.236          44.000    19588211.848    80210455.862        1268.997          42.000  
G 7  18371723.474    96544059.010        1301.533          50.000    18371718.616    75229117.190        1014.201          46.000  
G 9  16542322.954    86930493.176       -1067.482          51.000    16542319.619    67738032.197        -831.913          49.000  
R 9  16137539.193    86173558.078       -3094.645          53.000    16137538.497    67023876.758       -2406.956          52.000  
R11  19325669.398   103270520.930        2770.273          49.000    19325669.880    80321535.542        2154.893          42.000  
R 8  15681803.701    83975347.849       -1221.681          51.000    15681801.532    65314151.720        -950.145          49.000  
G30  20902341.339   109842550.397        2269.708          36.000    20902340.492    85591550.064        1768.518          37.000  
R 1  17428575.519    93165726.173        2112.140          48.000    17428577.591    72462238.241        1642.901          44.000  
> 2020  1  1 22 19  0.9880000  0  8                     
G27  19587904.872   102935136.336        1627.886          44.000    19587901.994    80209187.324        1268.323          41.000  
G 7  18371475.843    96542757.709        1301.199          50.000    18371471.008    75228103.191        1013.917          46.000  
G 9  16542526.214    86931561.036       -1068.024          51.000    16542522.751    67738864.290        -832.228          49.000  
R 9  16138118.877    86176653.122       -3095.168          53.000    16138118.121    67026284.014       -2407.370          52.000  
R11  19325151.069   103267750.866        2770.037          49.000    19325151.484    80319381.063        2154.376          42.000  
R 8  15682032.028    83976569.993       -1222.501          51.000    15682029.818    65315102.283        -950.788          49.000  
G30  20901909.344   109840280.775        2269.557          36.000    20901908.600    85589781.506        1768.623          37.000  
R 1  17428180.457    93163614.369        2111.653          48.000    17428182.492    72460595.742        1642.268          44.000  
> 2020  1  1 22 19  1.9880000  0  8                     
G27  19587595.172   102933509.023        1626.893          44.000    19587592.404    80207919.283        1267.750          41.000  
G 7  18371228.272    96541456.834        1300.628          50.000    18371223.469    75227089.523        1013.460          46.000  
G 9  16542729.609    86932629.677       -1069.034          51.000    16542726.023    67739697.000        -832.929          49.000  
R 9  16138698.683    86179748.866       -3096.136          53.000    16138697.907    67028691.820       -2408.039          52.000  
R11  19324632.787   103264981.242        2769.324          49.000    19324633.121    80317226.905        2153.742          42.000  
R 8  15682260.332    83977793.221       -1223.834          52.000    15682258.300    65316053.686        -951.812          49.000  
G30  20901477.523   109838011.428        2269.230          36.000    20901476.830    85588013.214        1768.055          37.000  
R 1  17427785.624    93161503.328        2110.589          48.000    17427787.608    72458953.820        1641.599          44.000  
> 2020  1  1 22 19  2.9880000  0  8                     
G27  19587285.557   102931882.114        1626.794          44.000    19587282.814    80206651.567        1267.576          41.000  
G 7  18370980.812    96540156.182        1300.667          50.000    18370975.903    75226076.026        1013.628          46.000  
G 9  16542933.070    86933698.870       -1069.272          51.000    16542929.533    67740530.138        -833.226          49.000  
R 9  16139278.423    86182845.076       -3096.343          53.000    16139277.714    67031099.987       -2408.269          52.000  
R11  19324114.481   103262211.840        2769.417          49.000    19324114.868    80315072.936        2153.990          42.000  
R 8  15682488.972    83979017.303       -1224.384          52.000    15682486.971    65317005.749        -952.310          49.000  
G30  20901045.736   109835742.149        2269.524          36.000    20901044.939    85586244.930        1768.381          37.000  
R 1  17427390.825    93159392.811        2110.478          48.000    17427392.708    72457312.305        1641.555          44.000  
> 2020  1  1 22 19  3.9880000  0  8                     
G27  19586976.065   102930255.586        1626.220          44.000    19586973.239    80205384.140        1267.476          42.000  
G 7  18370733.364    96538855.703        1300.317          50.000    18370728.481    75225062.674        1013.195          46.000  
G 9  16543136.569    86934768.579       -1070.044          51.000    16543133.072    67741363.671        -833.733          49.000  
R 9  16139858.272    86185941.700       -3096.885          53.000    16139857.623    67033508.467       -2408.710          52.000  
R11  19323596.174   103259442.595        2769.081          49.000    19323596.571    80312919.069        2153.843          42.000  
R 8  15682717.731    83980242.204       -1225.476          52.000    15682715.641    65317958.446        -953.021          49.000  
G30  20900613.834   109833472.900        2269.109          36.000    20900613.168    85584476.664        1768.275          37.000  
R 1  17426996.151    93157282.801        2109.651          48.000    17426998.016    72455671.183        1640.839          44.000  
> 2020  1  1 22 19  4.9880000  0  8                     
G27  19586666.586   102928629.488        1625.230          43.000    19586663.753    80204117.054        1266.519          41.000  
G 7  18370485.889    96537555.470        1299.487          49.000    18370481.041    75224049.507        1012.565          46.000  
G 9  16543340.161    86935838.849       -1071.195          51.000    16543336.728    67742197.650        -834.604          49.000  
R 9  16140438.299    86189038.834       -3097.993          52.000    16140437.536    67035917.344       -2409.493          52.000  
R11  19323077.896   103256673.575        2768.297          49.000    19323078.477    80310765.387        2153.246          42.000  
R 8  15682946.677    83981467.983       -1226.831          51.000    15682944.557    65318911.834        -954.296          49.000  
G30  20900181.897   109831203.731        2268.176          36.000    20900181.401    85582708.472        1767.639          37.000  
R 1  17426601.503    93155173.348        2108.587          47.000    17426603.434    72454030.502        1639.894          44.000  
> 2020  1  1 22 19  5.9880000  0  8                     
G27  19586357.259   102927003.958        1624.951          43.000    19586354.460    80202850.407        1266.263          41.000  
G 7  18370238.518    96536255.577        1299.439          49.000    18370233.658    75223036.603        1012.498          46.000  
G 9  16543543.996    86936909.815       -1071.644          51.000    16543540.514    67743032.168        -835.045          49.000  
R 9  16141018.456    86192136.556       -3098.310          52.000    16141017.619    67038326.686       -2409.803          52.000  
R11  19322559.796   103253904.880        2768.226          49.000    19322560.295    80308611.960        2153.019          42.000  
R 8  15683175.723    83982694.743       -1227.549          51.000    15683173.670    65319865.978        -954.822          49.000  
G30  20899750.076   109828934.715        2268.779          35.000    20899749.574    85580940.416        1767.855          37.000  
R 1  17426206.971    93153064.570        2108.062          47.000    17426208.814    72452390.345        1639.466          44.000  
> 2020  1  1 22 19  6.9880000  0  8                     
G27  19586047.958   102925378.896        1624.863          43.000    19586045.194    80201584.139        1266.076          41.000  
G 7  18369991.243    96534955.960        1299.600          49.000    18369986.364    75222023.915        1012.523          46.000  
G 9  16543747.850    86937981.396       -1071.734          51.000    16543744.478    67743867.165        -835.144          49.000  
R 9  16141598.599    86195234.806       -3098.397          52.000    16141597.748    67040736.433       -2409.814          52.000  
R11  19322041.765   103251136.462        2768.320          49.000    19322042.263    80306458.751        2153.051          41.000  
R 8  15683405.017    83983922.412       -1228.095          51.000    15683402.952    65320820.823        -955.094          49.000  
G30  20899318.275   109826665.864        2268.828          35.000    20899317.831    85579172.477        1767.944          37.000  
R 1  17425812.662    93150956.396        2107.765          47.000    17425814.393    72450750.652        1639.329          43.000  
> 2020  1  1 22 19  7.9880000  0  8                     
G27  19585738.899   102923754.287        1624.492          43.000    19585736.065    80200318.202        1266.013          42.000  
G 7  18369743.963    96533656.599        1299.310          50.000    18369739.050    75221011.429        1012.478          46.000  
G 9  16543951.914    86939053.561       -1072.314          51.000    16543948.541    67744702.621        -835.627          49.000  
R 9  16142178.908    86198333.540       -3098.804          52.000    16142178.067    67043146.567       -2410.217          51.000  
R11  19321523.676   103248368.304        2768.126          49.000    19321524.244    80304305.742        2152.931          41.000  
R 8  15683634.474    83985150.949       -1228.810          51.000    15683632.392    65321776.363        -955.827          49.000  
G30  20898886.375   109824397.085        2268.901          35.000    20898885.948    85577404.596        1767.636          37.000  
R 1  17425418.457    93148848.785        2107.519          48.000    17425420.168    72449111.399        1639.223          43.000  
> 2020  1  1 22 19  8.9880000  0  8                     
G27  19585429.836   102922130.127        1624.154          43.000    19585427.053    80199052.635        1265.667          42.000  
G 7  18369496.689    96532357.493        1299.022          50.000    18369491.768    75219999.140        1012.303          46.000  
G 9  16544156.042    86940126.314       -1073.036          51.000    16544152.593    67745538.531        -836.103          49.000  
R 9  16142759.361    86201432.793       -3099.481          52.000    16142758.525    67045557.102       -2410.770          51.000  
R11  19321005.787   103245600.380        2767.771          49.000    19321006.360    80302152.899        2153.035          41.000  
R 8  15683864.111    83986380.372       -1229.858          51.000    15683862.022    65322732.572        -956.523          49.000  
G30  20898454.624   109822128.422        2268.655          35.000    20898454.182    85575636.797        1767.841          37.000  
R 1  17425024.328    93146741.776        2106.660          48.000    17425026.067    72447472.614        1638.529          43.000  
> 2020  1  1 22 19  9.9880000  0  8                     
G27  19585120.792   102920506.490        1623.429          43.000    19585118.126    80197787.454        1265.184          42.000  
G 7  18369249.491    96531058.687        1298.723          50.000    18369244.590    75218987.082        1011.989          46.000  
G 9  16544360.308    86941199.711       -1073.714          51.000    16544356.894    67746374.946        -836.652          49.000  
R 9  16143339.796    86204532.593       -3099.985          52.000    16143338.900    67047968.054       -2411.127          51.000  
R11  19320487.928   103242832.711        2767.483          48.000    19320488.472    80300000.279        2152.688          41.000  
R 8  15684093.821    83987610.728       -1230.893          51.000    15684091.717    65323689.513        -957.272          49.000  
G30  20898023.012   109819859.879        2268.374          35.000    20898022.488    85573869.108        1767.551          37.000  
R 1  17424630.344    93144635.369        2106.183          48.000    17424632.018    72445834.308        1638.057          43.000  
> 2020  1  1 22 19 10.9880000  0  8                     
G27  19584811.852   102918883.301        1623.247          43.000    19584809.235    80196522.641        1264.622          42.000  
G 7  18369002.384    96529760.153        1298.550          49.000    18368997.477    75217975.242        1011.726          46.000  
G 9  16544564.646    86942273.697       -1074.088          51.000    16544561.310    67747211.814        -836.949          49.000  
R 9  16143920.413    86207632.900       -3100.396          52.000    16143919.500    67050379.403       -2411.441          51.000  
R11  19319970.079   103240065.318        2767.379          48.000    19319970.653    80297847.871        2152.257          41.000  
R 8  15684323.732    83988842.016       -1231.662          51.000    15684321.653    65324647.181        -957.998          49.000  
G30  20897591.396   109817591.445        2268.311          35.000    20897590.823    85572101.481        1768.005          37.000  
R 1  17424236.285    93142529.573        2105.495          48.000    17424238.108    72444196.463        1637.458          43.000  
> 2020  1  1 22 19 11.9880000  0  8                     
G27  19584503.109   102917260.412        1622.679          43.000    19584500.391    80195258.039        1264.483          42.000  
G 7  18368755.296    96528461.707        1298.180          50.000    18368750.419    75216963.469        1011.542          46.000  
G 9  16544769.216    86943348.111       -1074.915          51.000    16544765.846    67748049.021        -837.571          49.000  
R 9  16144501.071    86210733.549       -3101.016          53.000    16144500.169    67052791.021       -2411.865          52.000  
R11  19319452.229   103237297.992        2767.065          49.000    19319452.747    80295695.515        2151.994          41.000  
R 8  15684553.859    83990074.068       -1232.677          52.000    15684551.685    65325605.450        -958.768          49.000  
G30  20897159.748   109815322.935        2268.406          36.000    20897159.226    85570333.849        1767.285          37.000  
R 1  17423842.466    93140424.175        2104.965          48.000    17423844.147    72442558.924        1637.323          43.000  
> 2020  1  1 22 19 12.9880000  0  8                     
G27  19584194.428   102915637.995        1622.244          43.000    19584191.657    80193993.816        1264.095          42.000  
G 7  18368508.122    96527163.534        1298.290          50.000    18368503.319    75215951.914        1011.368          46.000  
G 9  16544973.787    86944423.127       -1075.198          52.000    16544970.393    67748886.700        -837.812          49.000  
R 9  16145081.932    86213834.721       -3101.234          53.000    16145080.943    67055203.047       -2412.080          52.000  
R11  19318934.322   103234530.899        2767.125          49.000    19318934.833    80293543.325        2152.234          42.000  
R 8  15684784.088    83991307.078       -1233.331          52.000    15684781.892    65326564.456        -959.284          49.000  
G30  20896728.068   109813054.577        2267.981          36.000    20896727.561    85568566.290        1767.278          37.000  
R 1  17423448.743    93138319.383        2104.586          48.000    17423450.468    72440921.871        1636.797          43.000  
> 2020  1  1 22 19 13.9880000  0  8                     
G27  19583885.762   102914015.844        1621.839          43.000    19583883.052    80192729.808        1263.835          42.000  
G 7  18368261.259    96525865.436        1297.969          50.000    18368256.323    75214940.392        1011.565          46.000  
G 9  16545178.536    86945498.574       -1075.853          52.000    16545175.089    67749724.704        -838.329          49.000  
R 9  16145662.782    86216936.200       -3101.706          53.000    16145661.793    67057615.303       -2412.398          52.000  
R11  19318416.471   103231763.868        2766.873          49.000    19318417.038    80291391.189        2152.053          42.000  
R 8  15685014.546    83992540.798       -1234.172          52.000    15685012.282    65327524.016        -959.922          49.000  
G30  20896296.409   109810786.089        2268.672          36.000    20896295.947    85566798.628        1767.793          37.000  
R 1  17423054.958    93136214.991        2104.130          49.000    17423056.744    72439285.124        1636.355          43.000  
> 2020  1  1 22 19 14.9880000  0  8                     
G27  19583577.228   102912394.053        1621.452          44.000    19583574.432    80191466.072        1263.561          42.000  
G 7  18368014.305    96524567.494        1297.646          50.000    18368009.393    75213929.014        1011.074          46.000  
G 9  16545383.301    86946574.492       -1076.451          52.000    16545379.821    67750563.080        -838.705          49.000  
R 9  16146243.692    86220038.121       -3102.267          52.000    16146242.599    67060027.906       -2412.958          52.000  
R11  19317898.787   103228996.992        2766.586          49.000    19317899.215    80289239.168        2151.754          42.000  
R 8  15685245.145    83993775.299       -1235.069          52.000    15685242.706    65328484.183        -960.585          49.000  
G30  20895864.714   109808517.600        2268.424          36.000    20895864.348    85565030.994        1767.246          37.000  
R 1  17422661.347    93134111.078        2103.535          49.000    17422663.143    72437648.739        1635.932          43.000  
> 2020  1  1 22 19 15.9880000  0  8                     
G27  19583268.688   102910772.827        1621.032          44.000    19583265.858    80190202.780        1263.116          42.000  
G 7  18367767.379    96523269.930        1297.355          50.000    18367762.534    75212917.933        1010.835          46.000  
G 9  16545588.166    86947651.114       -1077.049          52.000    16545584.638    67751402.012        -839.287          49.000  
R 9  16146824.670    86223140.663       -3102.773          53.000    16146823.554    67062440.993       -2413.231          52.000  
R11  19317381.074   103226230.501        2766.319          49.000    19317381.491    80287087.464        2151.327          42.000  
R 8  15685475.854    83995010.778       -1235.941          52.000    15685473.285    65329445.108        -961.207          49.000  
G30  20895433.073   109806249.377        2267.672          36.000    20895432.740    85563263.528        1767.117          37.000  
R 1  17422267.965    93132007.853        2102.853          49.000    17422269.669    72436012.894        1635.494          43.000  
> 2020  1  1 22 19 16.9880000  0  8                     
G27  19582960.353   102909152.203        1620.485          44.000    19582957.339    80188939.960        1262.535          42.000  
G 7  18367520.569    96521972.757        1297.177          50.000    18367515.720    75211907.147        1010.722          46.000  
G 9  16545793.075    86948728.472       -1077.629          52.000    16545789.632    67752241.510        -839.608          49.000  
R 9  16147405.793    86226243.836       -3103.352          53.000    16147404.651    67064854.574       -2413.700          52.000  
R11  19316863.391   103223464.371        2766.116          49.000    19316863.810    80284936.027        2151.521          42.000  
R 8  15685706.798    83996247.254       -1236.833          52.000    15685704.206    65330406.814        -961.964          49.000  
G30  20895001.524   109803981.316        2268.507          36.000    20895001.211    85561496.209        1767.330          37.000  
R 1  17421874.607    93129905.327        2102.333          49.000    17421876.291    72434377.588        1635.193          43.000  
> 2020  1  1 22 19 17.9880000  0  8                     
G27  19582652.014   102907531.718        1620.432          44.000    19582648.912    80187677.252        1262.626          42.000  
G 7  18367273.784    96520675.524        1297.255          50.000    18367268.887    75210896.317        1010.889          46.000  
G 9  16545998.112    86949806.104       -1077.774          52.000    16545994.677    67753081.223        -839.766          49.000  
R 9  16147986.876    86229347.179       -3103.477          53.000    16147985.805    67067268.285       -2413.736          52.000  
R11  19316345.712   103220698.148        2766.236          49.000    19316346.245    80282784.536        2151.281          42.000  
R 8  15685937.830    83997484.276       -1237.343          52.000    15685935.165    65331368.932        -962.206          49.000  
G30  20894569.930   109801713.093        2267.996          36.000    20894569.544    85559728.751        1767.655          37.000  
R 1  17421481.367    93127803.057        2102.202          49.000    17421483.045    72432742.496        1635.085          43.000  
> 2020  1  1 22 19 18.9880000  0  8                     
G27  19582343.757   102905911.485        1620.041          44.000    19582340.365    80186414.726        1262.364          42.000  
G 7  18367026.901    96519378.338        1297.094          50.000    18367022.017    75209885.517        1010.773          46.000  
G 9  16546203.237    86950884.112       -1078.268          52.000    16546199.775    67753921.235        -840.293          49.000  
R 9  16148568.134    86232450.833       -3103.870          53.000    16148567.047    67069682.237       -2414.204          52.000  
R11  19315828.005   103217931.988        2766.019          49.000    19315828.607    80280633.053        2151.740          42.000  
R 8  15686168.873    83998721.965       -1238.143          52.000    15686166.185    65332331.584        -963.034          49.000  
G30  20894138.335   109799444.745        2268.207          36.000    20894137.980    85557961.203        1767.556          37.000  
R 1  17421088.175    93125701.164        2101.643          48.000    17421089.782    72431107.687        1634.589          43.000  
> 2020  1  1 22 19 19.9880000  0  8                     
G27  19582035.517   102904291.589        1619.666          44.000    19582032.201    80185152.478        1262.063          42.000  
G 7  18366780.046    96518081.295        1296.849          50.000    18366775.170    75208874.841        1010.509          46.000  
G 9  16546408.601    86951962.611       -1078.912          52.000    16546405.026    67754761.621        -840.697          49.000  
R 9  16149149.419    86235554.857       -3104.312          53.000    16149148.377    67072096.477       -2414.428          52.000  
R11  19315310.416   103215165.966        2765.794          49.000    19315311.005    80278481.710        2151.419          42.000  
R 8  15686400.064    83999960.439       -1238.986          52.000    15686397.368    65333294.838        -963.594          49.000  
G30  20893706.644   109797176.356        2268.202          36.000    20893706.321    85556193.634        1767.671          38.000  
R 1  17420694.991    93123599.724        2101.180          48.000    17420696.568    72429473.247        1634.196          43.000  
> 2020  1  1 22 19 20.9880000  0  8                     
G27  19581727.354   102902672.141        1618.927          44.000    19581723.979    80183890.550        1261.754          42.000  
G 7  18366533.266    96516784.486        1296.405          50.000    18366528.379    75207864.339        1010.330          46.000  
G 9  16546613.917    86953041.669       -1079.702          51.000    16546610.293    67755602.447        -841.371          49.000  
R 9  16149730.698    86238659.357       -3105.003          53.000    16149729.706    67074511.089       -2414.935          52.000  
R11  19314792.870   103212400.139        2765.465          49.000    19314793.570    80276330.514        2150.857          42.000  
R 8  15686631.599    84001199.811       -1240.088          52.000    15686628.723    65334258.789        -964.395          49.000  
G30  20893275.020   109794908.058        2268.446          36.000    20893274.711    85554426.138        1767.090          38.000  
R 1  17420302.047    93121498.842        2100.403          48.000    17420303.641    72427839.226        1633.522          43.000  
> 2020  1  1 22 19 21.9880000  0  8                     
G27  19581419.286   102901053.107        1618.849          44.000    19581415.853    80182628.992        1261.182          42.000  
G 7  18366286.594    96515487.903        1296.360          50.000    18366281.708    75206854.015        1010.197          46.000  
G 9  16546819.334    86954121.291       -1080.012          51.000    16546815.790    67756443.711        -841.553          49.000  
R 9  16150312.051    86241764.353       -3105.273          52.000    16150311.246    67076926.089       -2415.179          52.000  
R11  19314275.211   103209634.527        2765.487          49.000    19314276.009    80274179.478        2151.156          42.000  
R 8  15686863.202    84002440.065       -1240.751          52.000    15686860.308    65335223.436        -964.998          49.000  
G30  20892843.269   109792639.883        2267.567          36.000    20892843.076    85552658.708        1767.053          38.000  
R 1  17419909.177    93119398.515        2099.997          49.000    17419910.665    72426205.626        1633.548          43.000  
> 2020  1  1 22 19 22.9880000  0  8                     
G27  19581111.289   102899434.540        1618.454          44.000    19581107.848    80181367.762        1261.098          42.000  
G 7  18366039.951    96514191.573        1296.109          50.000    18366034.970    75205843.884        1010.059          46.000  
G 9  16547024.928    86955201.497       -1080.574          52.000    16547021.290    67757285.427        -841.863          49.000  
R 9  16150893.556    86244869.838       -3105.782          52.000    16150892.847    67079341.464       -2415.564          52.000  
R11  19313757.638   103206869.169        2765.173          49.000    19313758.548    80272028.644        2150.828          42.000  
R 8  15687095.071    84003681.222       -1241.576          52.000    15687092.101    65336188.786        -965.782          49.000  
G30  20892411.692   109790371.712        2268.374          36.000    20892411.502    85550891.324        1767.063          38.000  
R 1  17419516.337    93117298.756        2099.575          48.000    17419517.785    72424572.491        1632.871          43.000  
> 2020  1  1 22 19 23.9880000  0  8                     
G27  19580803.362   102897816.394        1617.829          44.000    19580799.943    80180106.876        1260.716          42.000  
G 7  18365793.454    96512895.456        1296.017          50.000    18365788.250    75204833.931        1009.946          46.000  
G 9  16547230.449    86956282.258       -1081.072          52.000    16547226.962    67758127.582        -842.418          49.000  
R 9  16151475.142    86247975.799       -3106.201          52.000    16151474.449    67081757.209       -2415.944          52.000  
R11  19313240.226   103204103.994        2765.070          49.000    19313241.085    80269877.963        2150.524          42.000  
R 8  15687327.067    84004923.229       -1242.432          52.000    15687324.024    65337154.786        -966.310          49.000  
G30  20891980.133   109788103.644        2268.330          36.000    20891979.945    85549123.979        1767.566          38.000  
R 1  17419123.637    93115199.553        2098.973          48.000    17419125.218    72422939.775        1632.599          43.000  
> 2020  1  1 22 19 24.9880000  0  8                     
G27  19580495.492   102896198.527        1617.700          44.000    19580491.979    80178846.206        1260.471          42.000  
G 7  18365546.847    96511599.425        1296.059          50.000    18365541.643    75203824.044        1009.915          46.000  
G 9  16547436.197    86957363.451       -1081.491          52.000    16547432.738    67758970.080        -842.832          49.000  
R 9  16152056.795    86251082.081       -3106.483          52.000    16152056.230    67084173.209       -2416.152          52.000  
R11  19312722.653   103201338.882        2765.194          49.000    19312723.735    80267727.321        2150.586          42.000  
R 8  15687559.073    84006165.958       -1243.074          52.000    15687556.080    65338121.356        -966.862          49.000  
G30  20891548.589   109785835.538        2267.866          36.000    20891548.356    85547356.616        1767.316          38.000  
R 1  17418730.978    93113100.758        2098.515          48.000    17418732.611    72421307.383        1632.191          43.000  
> 2020  1  1 22 19 25.9880000  0  8                     
G27  19580187.638   102894581.076        1617.437          43.000    19580184.233    80177585.863        1260.120          42.000  
G 7  18365300.261    96510303.625        1295.725          50.000    18365295.177    75202814.323        1009.640          46.000  
G 9  16547642.150    86958445.196       -1082.048          52.000    16547638.680    67759812.988        -843.163          49.000  
R 9  16152638.584    86254188.828       -3106.978          52.000    16152637.891    67086589.565       -2416.466          52.000  
R11  19312205.303   103198573.989        2764.890          49.000    19312206.347    80265576.829        2150.610          42.000  
R 8  15687791.315    84007409.519       -1243.938          52.000    15687788.366    65339088.573        -967.645          49.000  
G30  20891116.982   109783567.440        2268.274          36.000    20891116.763    85545589.272        1767.521          38.000  
R 1  17418338.594    93111002.492        2098.055          48.000    17418340.032    72419675.397        1631.902          43.000  
> 2020  1  1 22 19 26.9880000  0  8                     
G27  19579879.890   102892964.092        1616.534          43.000    19579876.466    80176325.873        1259.878          41.000  
G 7  18365053.747    96509008.057        1295.323          50.000    18365048.744    75201804.784        1009.444          46.000  
G 9  16547848.083    86959527.516       -1082.812          52.000    16547844.635    67760656.354        -843.718          49.000  
R 9  16153220.485    86257296.075       -3107.717          52.000    16153219.759    67089006.315       -2417.058          52.000  
R11  19311687.830   103195809.327        2764.482          49.000    19311688.924    80263426.546        2150.157          42.000  
R 8  15688023.749    84008653.946       -1244.914          52.000    15688020.835    65340056.458        -968.311          49.000  
G30  20890685.381   109781299.452        2267.872          36.000    20890685.189    85543821.992        1767.542          38.000  
R 1  17417946.192    93108904.796        2097.349          48.000    17417947.591    72418043.862        1631.369          43.000  
> 2020  1  1 22 19 27.9880000  0  8                     
G27  19579572.268   102891347.702        1616.439          43.000    19579568.923    80175066.338        1259.700          41.000  
G 7  18364807.318    96507712.886        1295.306          50.000    18364802.231    75200795.565        1009.338          46.000  
G 9  16548054.135    86960610.566       -1083.186          52.000    16548050.723    67761500.291        -844.100          49.000  
R 9  16153802.481    86260403.972       -3107.927          52.000    16153801.807    67091423.568       -2417.259          52.000  
R11  19311170.493   103193045.049        2764.318          49.000    19311171.581    80261276.553        2150.034          42.000  
R 8  15688256.220    84009899.402       -1245.687          52.000    15688253.482    65341025.139        -968.824          49.000  
G30  20890253.929   109779031.705        2267.966          36.000    20890253.622    85542054.916        1767.446          38.000  
R 1  17417553.899    93106807.828        2097.014          48.000    17417555.325    72416412.892        1630.985          43.000  
> 2020  1  1 22 19 28.9880000  0  8                     
G27  19579264.616   102889731.548        1615.851          43.000    19579261.361    80173807.016        1258.947          41.000  
G 7  18364560.883    96506417.742        1295.055          50.000    18364555.732    75199786.369        1009.044          46.000  
G 9  16548260.316    86961693.972       -1083.658          52.000    16548256.909    67762344.508        -844.531          49.000  
R 9  16154384.620    86263512.146       -3108.430          52.000    16154383.933    67093841.035       -2417.651          52.000  
R11  19310653.201   103190280.793        2764.104          49.000    19310654.260    80259126.565        2150.021          42.000  
R 8  15688488.941    84011145.518       -1246.538          52.000    15688486.191    65341994.343        -969.430          49.000  
G30  20889822.514   109776763.821        2267.897          36.000    20889821.997    85540287.739        1767.076          37.000  
R 1  17417161.602    93104711.223        2096.459          48.000    17417163.116    72414782.206        1630.559          43.000  
> 2020  1  1 22 19 29.9880000  0  8                     
G27  19578957.137   102888115.807        1615.620          43.000    19578953.888    80172548.004        1258.859          41.000  
G 7  18364314.400    96505122.824        1294.809          50.000    18364309.373    75198777.333        1008.973          46.000  
G 9  16548466.571    86962777.957       -1084.346          52.000    16548463.223    67763189.167        -844.948          49.000  
R 9  16154966.742    86266620.793       -3108.938          52.000    16154966.120    67096258.877       -2418.113          52.000  
R11  19310135.919   103187516.727        2763.990          49.000    19310137.034    80256976.754        2149.476          42.000  
R 8  15688721.951    84012392.522       -1247.561          52.000    15688719.123    65342964.236        -970.236          49.000  
G30  20889391.063   109774496.010        2267.363          36.000    20889390.448    85538520.605        1767.190          37.000  
R 1  17416769.563    93102615.177        2095.806          49.000    17416770.955    72413151.942        1630.137          43.000  
> 2020  1  1 22 19 30.9880000  0  8                     
G27  19578649.729   102886500.594        1614.707          43.000    19578646.531    80171289.374        1258.255          41.000  
G 7  18364067.969    96503828.218        1294.273          50.000    18364063.035    75197768.553        1008.593          46.000  
G 9  16548672.917    86963862.571       -1085.042          52.000    16548669.513    67764034.318        -845.429          49.000  
R 9  16155548.996    86269729.982       -3109.475          52.000    16155548.345    67098677.140       -2418.634          52.000  
R11  19309618.729   103184752.954        2763.599          49.000    19309619.823    80254827.156        2149.070          42.000  
R 8  15688955.047    84013640.490       -1248.534          52.000    15688952.132    65343934.884        -971.169          49.000  
G30  20888959.598   109772228.331        2267.185          37.000    20888958.861    85536753.576        1767.061          38.000  
R 1  17416377.613    93100519.758        2094.990          49.000    17416378.944    72411522.174        1629.482          43.000  
> 2020  1  1 22 19 31.9880000  0  8                     
G27  19578342.431   102884885.815        1614.650          43.000    19578339.251    80170031.103        1258.235          42.000  
G 7  18363821.751    96502533.852        1294.185          50.000    18363816.615    75196759.961        1008.349          46.000  
G 9  16548879.364    86964947.782       -1085.556          52.000    16548875.958    67764879.938        -845.914          49.000  
R 9  16156131.246    86272839.667       -3109.940          52.000    16156130.648    67101095.776       -2418.760          52.000  
R11  19309101.583   103181989.452        2763.290          49.000    19309102.748    80252677.757        2149.324          42.000  
R 8  15689188.155    84014889.369       -1249.404          52.000    15689185.436    65344906.223        -971.670          49.000  
G30  20888528.145   109769960.727        2267.920          37.000    20888527.350    85534986.653        1766.942          38.000  
R 1  17415985.728    93098424.927        2094.499          49.000    17415987.118    72409892.851        1629.277          43.000  
> 2020  1  1 22 19 32.9880000  0  8                     
G27  19578035.256   102883271.406        1614.331          43.000    19578032.038    80168773.125        1257.933          42.000  
G 7  18363575.437    96501239.655        1294.182          50.000    18363570.336    75195751.495        1008.237          46.000  
G 9  16549086.027    86966033.484       -1085.890          51.000    16549082.565    67765725.940        -846.156          49.000  
R 9  16156713.515    86275949.752       -3110.263          52.000    16156713.131    67103514.732       -2419.083          52.000  
R11  19308584.449   103179226.105        2763.204          49.000    19308585.560    80250528.472        2149.393          42.000  
R 8  15689421.526    84016139.027       -1250.076          52.000    15689418.854    65345878.181        -972.292          49.000  
G30  20888096.613   109767693.164        2267.622          37.000    20888095.876    85533219.708        1766.693          38.000  
R 1  17415593.919    93096330.576        2094.111          49.000    17415595.237    72408263.916        1628.820          43.000  
> 2020  1  1 22 19 33.9880000  0  8                     
G27  19577728.047   102881657.366        1614.025          43.000    19577724.842    80167515.450        1257.542          42.000  
G 7  18363329.273    96499945.628        1294.029          50.000    18363324.059    75194743.161        1008.306          46.000  
G 9  16549292.744    86967119.696       -1086.311          51.000    16549289.085    67766572.341        -846.498          49.000  
R 9  16157295.978    86279060.265       -3110.486          52.000    16157295.650    67105934.025       -2419.307          52.000  
R11  19308067.334   103176462.903        2763.165          48.000    19308068.435    80248379.326        2149.157          42.000  
R 8  15689655.057    84017389.487       -1250.696          52.000    15689652.370    65346850.766        -972.802          49.000  
G30  20887665.144   109765425.602        2267.708          37.000    20887664.413    85531452.773        1767.013          38.000  
R 1  17415202.156    93094236.704        2093.818          49.000    17415203.622    72406635.360        1628.547          43.000  
> 2020  1  1 22 19 34.9880000  0  8                     
G27  19577420.914   102880043.690        1613.315          43.000    19577417.748    80166258.031        1257.328          42.000  
G 7  18363083.016    96498651.756        1293.635          50.000    18363077.780    75193734.946        1008.096          46.000  
G 9  16549499.559    86968206.385       -1087.066          51.000    16549495.899    67767419.119        -847.105          49.000  
R 9  16157878.603    86282171.193       -3111.338          52.000    16157878.277    67108353.631       -2419.943          52.000  
R11  19307550.389   103173699.839        2762.828          49.000    19307551.311    80246230.274        2148.823          42.000  
R 8  15689888.769    84018640.744       -1251.828          52.000    15689886.041    65347823.960        -973.588          49.000  
G30  20887233.762   109763158.039        2267.482          37.000    20887232.915    85529685.831        1766.833          38.000  
R 1  17414810.511    93092143.324        2093.010          48.000    17414812.082    72405007.167        1628.040          43.000  
> 2020  1  1 22 19 35.9880000  0  8                     
G27  19577113.876   102878430.470        1612.676          43.000    19577110.787    80165000.974        1256.596          42.000  
G 7  18362836.802    96497358.128        1293.512          50.000    18362831.648    75192726.921        1008.085          46.000  
G 9  16549706.342    86969293.662       -1087.588          51.000    16549702.987    67768266.342        -847.468          49.000  
R 9  16158461.304    86285282.598       -3111.678          52.000    16158461.051    67110773.608       -2420.117          52.000  
R11  19307033.316   103170937.003        2762.756          49.000    19307034.402    80244081.401        2148.818          42.000  
R 8  15690122.585    84019892.858       -1252.533          52.000    15690119.957    65348797.834        -974.314          49.000  
G30  20886802.310   109760890.577        2266.654          37.000    20886801.499    85527918.960        1766.857          38.000  
R 1  17414418.960    93090050.498        2092.557          48.000    17414420.454    72403379.414        1627.740          43.000  
> 2020  1  1 22 19 36.9880000  0  8                     
G27  19576807.050   102876817.693        1612.455          43.000    19576803.881    80163744.265        1256.498          42.000  
G 7  18362590.768    96496064.774        1293.056          50.000    18362585.600    75191719.115        1007.752          46.000  
G 9  16549913.411    86970381.548       -1088.489          51.000    16549909.972    67769114.042        -848.144          49.000  
R 9  16159044.239    86288394.529       -3112.450          52.000    16159043.680    67113194.003       -2420.823          52.000  
R11  19306516.349   103168174.447        2762.125          49.000    19306517.529    80241932.737        2148.445          42.000  
R 8  15690356.519    84021145.898       -1253.741          52.000    15690353.939    65349772.418        -975.199          49.000  
G30  20886370.834   109758623.204        2266.991          37.000    20886369.967    85526152.190        1766.660          38.000  
R 1  17414027.424    93087958.267        2091.608          48.000    17414029.073    72401752.115        1626.914          43.000  
> 2020  1  1 22 19 37.9880000  0  8                     
G27  19576500.165   102875205.348        1611.947          43.000    19576497.071    80162487.896        1256.033          42.000  
G 7  18362344.721    96494771.610        1292.836          50.000    18362339.519    75190711.466        1007.258          46.000  
G 9  16550120.510    86971469.950       -1088.853          51.000    16550117.149    67769962.145        -848.234          49.000  
R 9  16159627.055    86291506.880       -3112.794          52.000    16159626.443    67115614.716       -2420.963          52.000  
R11  19305999.353   103165412.058        2762.079          49.000    19306000.691    80239784.212        2148.742          42.000  
R 8  15690590.578    84022399.757       -1254.402          52.000    15690588.131    65350747.640        -975.600          49.000  
G30  20885939.348   109756355.856        2267.070          37.000    20885938.554    85524385.461        1766.262          38.000  
R 1  17413636.149    93085866.547        2091.145          48.000    17413637.830    72400125.229        1626.600          43.000  
> 2020  1  1 22 19 38.9880000  0  8                     
G27  19576193.354   102873593.322        1611.721          43.000    19576190.411    80161231.794        1255.603          42.000  
G 7  18362098.621    96493478.598        1292.777          50.000    18362093.471    75189703.919        1007.328          46.000  
G 9  16550327.732    86972558.829       -1089.169          51.000    16550324.227    67770810.635        -848.725          49.000  
R 9  16160209.963    86294619.605       -3113.175          52.000    16160209.268    67118035.729       -2421.262          52.000  
R11  19305482.356   103162649.773        2762.101          49.000    19305483.788    80237635.789        2148.077          42.000  
R 8  15690824.765    84023654.386       -1255.140          52.000    15690822.360    65351723.461        -976.248          49.000  
G30  20885508.066   109754088.502        2267.216          37.000    20885507.087    85522618.674        1766.719          38.000  
R 1  17413244.833    93083775.273        2090.950          48.000    17413246.573    72398498.678        1626.434          43.000  
> 2020  1  1 22 19 39.9880000  0  8                     
G27  19575886.768   102871981.646        1611.601          43.000    19575883.619    80159975.918        1255.876          42.000  
G 7  18361852.540    96492185.707        1292.762          49.000    18361847.453    75188696.471        1007.538          46.000  
G 9  16550535.037    86973648.192       -1089.633          51.000    16550531.502    67771659.479        -848.919          49.000  
R 9  16160792.881    86297732.720       -3113.254          52.000    16160792.245    67120457.043       -2421.548          52.000  
R11  19304965.445   103159887.616        2762.106          49.000    19304966.928    80235487.436        2148.237          42.000  
R 8  15691059.113    84024909.775       -1255.747          52.000    15691056.720    65352699.875        -976.660          49.000  
G30  20885076.639   109751821.134        2267.097          37.000    20885075.613    85520851.894        1766.671          38.000  
R 1  17412853.778    93081684.477        2090.517          48.000    17412855.464    72396872.510        1625.996          43.000  
> 2020  1  1 22 19 40.9880000  0  8                     
G27  19575580.134   102870370.214        1611.289          43.000    19575576.934    80158720.264        1255.495          42.000  
G 7  18361606.604    96490892.869        1292.623          49.000    18361601.473    75187689.058        1007.388          46.000  
G 9  16550742.449    86974737.917       -1090.014          51.000    16550738.875    67772508.624        -849.401          49.000  
R 9  16161375.857    86300846.108       -3113.619          52.000    16161375.335    67122878.570       -2421.753          52.000  
R11  19304448.538   103157125.490        2762.042          49.000    19304450.130    80233339.120        2148.169          42.000  
R 8  15691293.683    84026165.842       -1256.500          52.000    15691291.300    65353676.816        -977.274          49.000  
G30  20884645.290   109749553.634        2267.563          37.000    20884644.143    85519085.006        1766.941          38.000  
R 1  17412462.836    93079594.048        2090.206          48.000    17412464.434    72395246.618        1625.795          43.000  
> 2020  1  1 22 19 41.9880000  0  8                     
G27  19575273.529   102868759.045        1611.072          43.000    19575270.346    80157464.818        1255.297          42.000  
G 7  18361360.538    96489600.076        1292.697          49.000    18361355.386    75186681.698        1007.261          46.000  
G 9  16550949.796    86975828.042       -1090.385          52.000    16550946.312    67773358.070        -849.662          49.000  
R 9  16161959.067    86303959.826       -3113.949          52.000    16161958.374    67125300.345       -2421.967          52.000  
R11  19303931.571   103154363.426        2761.927          49.000    19303933.368    80231190.840        2148.258          42.000  
R 8  15691528.394    84027422.617       -1257.150          52.000    15691525.908    65354654.310        -977.879          49.000  
G30  20884213.868   109747286.038        2268.090          37.000    20884212.669    85517318.060        1767.140          38.000  
R 1  17412071.824    93077504.017        2089.680          48.000    17412073.387    72393621.026        1625.505          43.000  
> 2020  1  1 22 19 42.9880000  0  8                     
G27  19574966.947   102867148.219        1610.909          43.000    19574963.876    80156209.623        1255.356          42.000  
G 7  18361114.492    96488307.441        1292.642          49.000    18361109.480    75185674.441        1007.396          46.000  
G 9  16551157.348    86976918.659       -1090.847          51.000    16551153.833    67774207.903        -849.983          49.000  
R 9  16162542.114    86307073.946       -3114.247          52.000    16162541.514    67127722.435       -2422.181          52.000  
R11  19303414.650   103151601.493        2761.987          49.000    19303416.542    80229042.680        2148.062          42.000  
R 8  15691763.208    84028680.187       -1257.870          52.000    15691760.742    65355632.417        -978.347          49.000  
G30  20883782.381   109745018.480        2267.347          37.000    20883781.246    85515551.135        1766.697          38.000  
R 1  17411680.884    93075414.466        2089.323          48.000    17411682.401    72391995.840        1624.878          44.000  
> 2020  1  1 22 19 43.9880000  0  8                     
G27  19574660.484   102865537.872        1610.163          43.000    19574657.435    80154954.816        1254.653          42.000  
G 7  18360868.490    96487015.068        1292.162          49.000    18360863.604    75184667.406        1006.967          46.000  
G 9  16551365.003    86978009.871       -1091.628          51.000    16551361.451    67775058.200        -850.599          49.000  
R 9  16163125.480    86310188.547       -3114.978          52.000    16163124.785    67130144.903       -2422.699          52.000  
R11  19302897.782   103148839.781        2761.616          49.000    19302899.773    80226894.676        2147.982          43.000  
R 8  15691998.171    84029938.645       -1258.927          52.000    15691995.682    65356611.213        -979.164          49.000  
G30  20883350.951   109742750.990        2267.108          37.000    20883349.781    85513784.249        1766.519          38.000  
R 1  17411290.031    93073325.518        2088.554          48.000    17411291.697    72390371.096        1624.408          44.000  
> 2020  1  1 22 19 44.9880000  0  8                     
G27  19574354.044   102863927.702        1610.226          43.000    19574351.070    80153700.145        1254.313          42.000  
G 7  18360622.687    96485722.676        1292.382          49.000    18360617.761    75183660.348        1007.013          46.000  
G 9  16551572.753    86979101.398       -1091.628          51.000    16551569.142    67775908.739        -850.668          49.000  
R 9  16163708.753    86313303.394       -3114.843          52.000    16163708.084    67132567.567       -2422.732          52.000  
R11  19302381.016   103146078.035        2761.765          49.000    19302383.035    80224746.655        2147.933          42.000  
R 8  15692233.335    84031197.716       -1259.313          51.000    15692230.819    65357590.498        -979.580          49.000  
G30  20882919.406   109740483.289        2268.223          37.000    20882918.237    85512017.216        1767.482          38.000  
R 1  17410899.377    93071236.872        2088.597          48.000    17410900.996    72388746.595        1624.318          44.000  
> 2020  1  1 22 19 45.9880000  0  8                     
G27  19574047.619   102862317.747        1609.634          43.000    19574044.751    80152445.628        1254.264          42.000  
G 7  18360376.686    96484430.281        1292.205          49.000    18360371.828    75182653.289        1006.895          46.000  
G 9  16551780.461    86980193.254       -1092.143          51.000    16551776.917    67776759.532        -850.866          49.000  
R 9  16164292.065    86316418.469       -3115.441          52.000    16164291.343    67134990.399       -2423.007          52.000  
R11  19301864.099   103143316.282        2761.599          48.000    19301866.322    80222598.626        2147.885          43.000  
R 8  15692468.586    84032457.436       -1260.299          51.000    15692466.098    65358570.279        -980.245          49.000  
G30  20882487.963   109738215.495        2267.350          37.000    20882486.714    85510250.069        1767.361          38.000  
R 1  17410508.710    93069148.552        2087.942          48.000    17410510.412    72387122.343        1624.031          44.000  
> 2020  1  1 22 19 46.9880000  0  8                     
G27  19573741.402   102860708.316        1609.302          43.000    19573738.452    80151191.517        1254.039          42.000  
G 7  18360130.750    96483138.224        1292.022          49.000    18360125.884    75181646.491        1006.757          46.000  
G 9  16551988.308    86981285.787       -1092.700          51.000    16551984.778    67777610.860        -851.459          49.000  
R 9  16164875.583    86319534.132       -3115.758          52.000    16164874.857    67137413.699       -2423.406          52.000  
R11  19301347.401   103140554.865        2761.333          48.000    19301349.567    80220450.848        2147.780          43.000  
R 8  15692704.065    84033718.129       -1260.995          51.000    15692701.653    65359550.818        -980.801          49.000  
G30  20882056.392   109735947.825        2267.524          37.000    20882055.176    85508483.075        1767.328          38.000  
R 1  17410118.136    93067060.888        2087.366          48.000    17410119.913    72385498.604        1623.530          44.000  
> 2020  1  1 22 19 47.9880000  0  8                     
G27  19573435.228   102859099.326        1608.584          43.000    19573432.441    80149937.768        1253.469          42.000  
G 7  18359884.860    96481846.392        1291.676          49.000    18359880.005    75180639.864        1006.562          46.000  
G 9  16552196.326    86982378.877       -1093.534          51.000    16552192.881    67778462.622        -852.146          49.000  
R 9  16165459.248    86322650.246       -3116.480          52.000    16165458.482    67139837.344       -2423.911          52.000  
R11  19300830.626   103137793.650        2761.008          48.000    19300832.864    80218303.237        2147.388          43.000  
R 8  15692939.624    84034979.694       -1262.078          51.000    15692937.149    65360532.038        -981.672          49.000  
G30  20881625.018   109733680.243        2267.101          37.000    20881623.758    85506716.117        1767.194          38.000  
R 1  17409727.627    93064973.744        2086.831          48.000    17409729.559    72383875.268        1623.126          44.000  
> 2020  1  1 22 19 48.9880000  0  8                     
G27  19573129.129   102857490.840        1607.937          42.000    19573126.399    80148684.394        1253.027          42.000  
G 7  18359639.077    96480554.859        1291.215          49.000    18359634.258    75179633.475        1006.227          46.000  
G 9  16552404.532    86983472.608       -1094.233          51.000    16552400.977    67779314.874        -852.623          49.000  
R 9  16166042.888    86325766.927       -3117.185          52.000    16166042.115    67142261.427       -2424.424          52.000  
R11  19300313.940   103135032.708        2760.588          48.000    19300316.262    80216155.828        2147.414          43.000  
R 8  15693175.331    84036242.201       -1263.133          51.000    15693172.913    65361513.980        -982.345          49.000  
G30  20881193.471   109731412.800        2267.072          37.000    20881192.341    85504949.310        1766.323          38.000  
R 1  17409337.175    93062887.227        2086.139          48.000    17409339.288    72382252.419        1622.639          44.000  
> 2020  1  1 22 19 49.9880000  0  8                     
G27  19572823.023   102855882.521        1608.035          42.000    19572820.363    80147431.170        1252.870          42.000  
G 7  18359393.245    96479263.295        1291.600          49.000    18359388.510    75178627.071        1006.381          46.000  
G 9  16552612.810    86984566.633       -1094.235          52.000    16552609.223    67780167.361        -852.562          49.000  
R 9  16166626.550    86328883.792       -3116.953          52.000    16166625.785    67144685.656       -2424.380          52.000  
R11  19299797.238   103132271.737        2760.944          48.000    19299799.655    80214008.412        2147.361          43.000  
R 8  15693411.126    84037505.292       -1263.451          52.000    15693408.940    65362496.390        -982.726          49.000  
G30  20880761.931   109729145.167        2267.413          37.000    20880760.786    85503182.299        1767.220          38.000  
R 1  17408946.924    93060800.991        2086.055          48.000    17408949.076    72380629.805        1622.252          44.000  
> 2020  1  1 22 19 50.9880000  0  8                     
G27  19572516.933   102854274.710        1607.490          42.000    19572514.337    80146178.330        1252.577          42.000  
G 7  18359147.563    96477972.046        1291.004          49.000    18359142.749    75177620.890        1006.191          46.000  
G 9  16552821.095    86985661.304       -1095.060          51.000    16552817.506    67781020.355        -853.311          49.000  
R 9  16167210.279    86332001.221       -3117.694          52.000    16167209.596    67147110.324       -2424.946          52.000  
R11  19299280.653   103129511.081        2760.450          48.000    19299283.002    80211861.235        2147.038          43.000  
R 8  15693647.307    84038769.333       -1264.477          51.000    15693644.909    65363479.530        -983.502          49.000  
G30  20880330.396   109726877.652        2267.506          37.000    20880329.363    85501415.442        1766.869          38.000  
R 1  17408556.746    93058715.405        2085.257          48.000    17408558.958    72379007.677        1621.833          44.000  
> 2020  1  1 22 19 51.9880000  0  8                     
G27  19572211.014   102852667.255        1607.161          42.000    19572208.362    80144925.769        1252.277          42.000  
G 7  18358901.830    96476680.938        1290.878          50.000    18358897.157    75176614.842        1005.935          46.000  
G 9  16553029.526    86986756.448       -1095.388          51.000    16553025.942    67781873.709        -853.536          49.000  
R 9  16167794.118    86335119.036       -3118.073          52.000    16167793.462    67149535.286       -2425.209          52.000  
R11  19298764.175   103126750.551        2760.464          48.000    19298766.453    80209714.159        2146.962          43.000  
R 8  15693883.514    84040034.135       -1265.219          51.000    15693881.058    65364463.265        -983.988          49.000  
G30  20879898.812   109724610.178        2267.358          37.000    20879897.965    85499648.571        1766.681          38.000  
R 1  17408166.702    93056630.293        2084.777          48.000    17408168.890    72377385.915        1621.624          44.000  
> 2020  1  1 22 19 52.9880000  0  8                     
G27  19571905.206   102851060.180        1606.969          42.000    19571902.580    80143673.489        1252.269          42.000  
G 7  18358656.159    96475390.004        1290.822          50.000    18358651.502    75175608.919        1005.922          46.000  
G 9  16553237.999    86987852.116       -1095.909          51.000    16553234.491    67782727.478        -853.978          49.000  
R 9  16168378.085    86338237.337       -3118.575          52.000    16168377.346    67151960.630       -2425.480          52.000  
R11  19298247.686   103123990.179        2760.292          48.000    19298249.917    80207567.200        2147.037          43.000  
R 8  15694119.798    84041299.744       -1266.034          51.000    15694117.441    65365447.627        -984.599          49.000  
G30  20879467.331   109722342.712        2267.209          37.000    20879466.494    85497881.697        1766.705          38.000  
R 1  17407776.734    93054545.692        2084.214          48.000    17407778.957    72375764.560        1621.083          44.000  
> 2020  1  1 22 19 53.9880000  0  8                     
G27  19571599.439   102849453.478        1606.375          42.000    19571596.789    80142421.524        1251.657          42.000  
G 7  18358410.483    96474099.230        1290.552          50.000    18358405.800    75174603.125        1005.579          46.000  
G 9  16553446.542    86988948.272       -1096.428          51.000    16553443.166    67783581.622        -854.313          49.000  
R 9  16168962.127    86341355.990       -3118.997          52.000    16168961.384    67154386.256       -2425.912          52.000  
R11  19297731.153   103121229.942        2760.059          48.000    19297733.434    80205420.345        2146.817          43.000  
R 8  15694356.264    84042566.143       -1266.911          51.000    15694354.025    65366432.605        -985.355          49.000  
G30  20879035.875   109720075.204        2267.600          36.000    20879034.904    85496114.839        1766.608          38.000  
R 1  17407386.833    93052461.561        2083.758          48.000    17407389.107    72374143.566        1620.729          44.000  
> 2020  1  1 22 19 54.9880000  0  8                     
G27  19571293.798   102847847.229        1605.707          42.000    19571291.140    80141169.899        1251.254          42.000  
G 7  18358164.996    96472808.711        1290.184          50.000    18358160.109    75173597.520        1005.430          46.000  
G 9  16553655.289    86990045.015       -1097.288          51.000    16553651.830    67784436.227        -855.053          49.000  
R 9  16169546.172    86344475.137       -3119.693          52.000    16169545.513    67156812.255       -2426.425          52.000  
R11  19297214.592   103118469.982        2759.584          48.000    19297216.995    80203273.709        2146.174          43.000  
R 8  15694592.954    84043833.456       -1268.044          51.000    15694590.652    65367418.291        -986.288          49.000  
G30  20878604.424   109717807.848        2267.025          37.000    20878603.435    85494348.046        1766.576          38.000  
R 1  17406997.110    93050378.021        2083.067          48.000    17406999.372    72372523.041        1620.084          44.000  
> 2020  1  1 22 19 55.9880000  0  8                     
G27  19570988.298   102846241.545        1605.297          42.000    19570985.625    80139918.725        1250.807          42.000  
G 7  18357919.578    96471518.542        1289.812          50.000    18357914.569    75172592.202        1004.957          46.000  
G 9  16553864.088    86991142.450       -1097.958          51.000    16553860.683    67785291.375        -855.517          49.000  
R 9  16170130.307    86347594.887       -3120.209          52.000    16170129.803    67159238.728       -2426.760          52.000  
R11  19296698.170   103115710.345        2759.404          48.000    19296700.516    80201127.330        2146.001          43.000  
R 8  15694829.887    84045101.769       -1268.926          51.000    15694827.574    65368404.765        -987.069          49.000  
G30  20878173.146   109715540.660        2266.920          37.000    20878172.014    85492581.391        1766.722          38.000  
R 1  17406607.503    93048295.156        2082.500          48.000    17406609.657    72370903.037        1619.753          44.000  
> 2020  1  1 22 19 56.9880000  0  8                     
G27  19570682.896   102844636.524        1604.838          42.000    19570680.195    80138668.060        1250.436          42.000  
G 7  18357674.063    96470228.840        1289.639          50.000    18357669.184    75171587.237        1004.949          46.000  
G 9  16554073.057    86992240.690       -1098.531          51.000    16554069.648    67786147.144        -856.070          49.000  
R 9  16170714.699    86350715.315       -3120.538          52.000    16170714.209    67161665.734       -2427.125          52.000  
R11  19296181.901   103112951.154        2759.105          48.000    19296184.282    80198981.284        2146.095          43.000  
R 8  15695066.770    84046371.210       -1269.831          51.000    15695064.693    65369392.105        -987.721          49.000  
G30  20877741.727   109713273.779        2266.641          37.000    20877740.534    85490814.992        1766.718          38.000  
R 1  17406218.022    93046213.096        2081.706          48.000    17406220.137    72369283.655        1619.026          44.000  
> 2020  1  1 22 19 57.9880000  0  8                     
G27  19570377.564   102843031.872        1604.552          42.000    19570374.847    80137417.677        1250.380          42.000  
G 7  18357428.740    96468939.308        1289.591          50.000    18357423.622    75170582.409        1004.946          46.000  
G 9  16554282.205    86993339.422       -1098.870          52.000    16554278.617    67787003.300        -856.293          49.000  
R 9  16171299.256    86353836.178       -3120.856          52.000    16171298.612    67164093.067       -2427.317          52.000  
R11  19295665.657   103110192.107        2759.122          48.000    19295668.022    80196835.352        2146.245          43.000  
R 8  15695303.892    84047641.455       -1270.522          51.000    15695301.922    65370380.068        -988.133          49.000  
G30  20877310.328   109711006.909        2267.197          37.000    20877309.188    85489048.616        1766.405          38.000  
R 1  17405828.581    93044131.521        2081.546          48.000    17405830.626    72367664.664        1618.602          44.000  
> 2020  1  1 22 19 58.9880000  0  8                     
G27  19570072.393   102841427.707        1603.821          42.000    19570069.613    80136167.679        1249.846          42.000  
G 7  18357183.392    96467650.051        1289.055          50.000    18357178.381    75169577.794        1004.486          46.000  
G 9  16554491.374    86994438.765       -1099.748          52.000    16554487.723    67787859.929        -856.950          49.000  
R 9  16171883.705    86356957.574       -3121.751          52.000    16171883.207    67166520.816       -2427.904          52.000  
R11  19295149.456   103107433.340        2758.494          48.000    19295151.918    80194689.646        2145.640          43.000  
R 8  15695541.254    84048912.590       -1271.574          52.000    15695539.204    65371368.730        -989.018          49.000  
G30  20876879.000   109708740.141        2266.556          37.000    20876877.837    85487282.319        1765.983          38.000  
R 1  17405439.354    93042050.546        2080.596          48.000    17405441.255    72366046.112        1618.319          44.000  
> 2020  1  1 22 19 59.9880000  0  8                     
G27  19569767.102   102839823.903        1603.685          42.000    19569764.414    80134917.967        1249.587          42.000  
G 7  18356937.988    96466360.952        1289.173          50.000    18356933.108    75168573.311        1004.471          46.000  
G 9  16554700.649    86995538.604       -1099.995          52.000    16554697.018    67788716.951        -857.248          49.000  
R 9  16172468.380    86360079.375       -3121.844          52.000    16172467.821    67168948.886       -2428.171          52.000  
R11  19294633.161   103104674.738        2758.579          48.000    19294635.790    80192544.074        2145.549          44.000  
R 8  15695778.735    84050184.498       -1272.178          51.000    15695776.775    65372357.997        -989.592          49.000  
G30  20876447.578   109706473.408        2266.793          37.000    20876446.471    85485516.016        1766.245          38.000  
R 1  17405050.111    93039970.067        2080.308          48.000    17405052.087    72364427.969        1617.957          44.000  
> 2020  1  1 22 20  0.9880000  0  8                     
G27  19569461.962   102838220.475        1603.538          43.000    19569459.405    80133668.546        1249.383          42.000  
G 7  18356692.726    96465072.052        1288.938          50.000    18356687.828    75167568.969        1004.314          46.000  
G 9  16554910.044    86996638.977       -1100.561          52.000    16554906.474    67789574.376        -857.582          49.000  
R 9  16173053.052    86363201.594       -3122.333          52.000    16173052.604    67171377.276       -2428.417          52.000  
R11  19294116.889   103101916.277        2758.775          48.000    19294119.520    80190398.604        2145.444          44.000  
R 8  15696016.367    84051457.212       -1272.993          51.000    15696014.485    65373347.889        -990.146          49.000  
G30  20876016.299   109704206.685        2267.054          37.000    20876015.123    85483749.750        1766.102          38.000  
R 1  17404661.019    93037890.107        2079.802          48.000    17404663.000    72362810.219        1617.709          44.000  
> 2020  1  1 22 20  1.9880000  0  8                     
G27  19569156.953   102836617.256        1602.962          43.000    19569154.387    80132419.288        1248.961          43.000  
G 7  18356447.456    96463783.107        1288.824          50.000    18356442.550    75166564.598        1004.273          46.000  
G 9  16555119.445    86997739.651       -1101.007          52.000    16555115.842    67790432.047        -857.897          49.000  
R 9  16173637.853    86366324.031       -3122.817          52.000    16173637.342    67173805.837       -2428.816          52.000  
R11  19293600.643   103099157.779        2758.351          48.000    19293603.347    80188253.109        2145.369          44.000  
R 8  15696254.095    84052730.545       -1273.828          51.000    15696252.339    65374338.255        -990.820          49.000  
G30  20875584.905   109701939.791        2266.481          37.000    20875583.769    85481983.340        1765.817          38.000  
R 1  17404271.982    93035810.465        2079.244          48.000    17404273.850    72361192.711        1617.369          44.000  
> 2020  1  1 22 20  2.9880000  0  8                     
G27  19568852.047   102835014.492        1602.283          43.000    19568849.285    80131170.380        1248.594          43.000  
G 7  18356202.292    96462494.446        1288.354          50.000    18356197.267    75165560.458        1003.639          46.000  
G 9  16555329.018    86998840.932       -1101.754          52.000    16555325.451    67791290.194        -858.729          49.000  
R 9  16174222.756    86369446.978       -3123.388          52.000    16174222.161    67176234.804       -2429.371          52.000  
R11  19293084.379   103096399.551        2757.995          48.000    19293087.182    80186107.816        2144.976          44.000  
R 8  15696492.078    84054004.790       -1274.889          51.000    15696490.359    65375329.332        -991.548          49.000  
G30  20875153.524   109699672.992        2266.691          37.000    20875152.328    85480216.978        1766.107          38.000  
R 1  17403883.164    93033731.416        2078.638          48.000    17403885.080    72359575.687        1616.561          44.000  
> 2020  1  1 22 20  3.9880000  0  8                     
G27  19568547.128   102833412.444        1602.160          43.000    19568544.365    80129922.032        1248.492          43.000  
G 7  18355957.168    96461206.289        1288.207          50.000    18355952.112    75164556.690        1003.730          46.000  
G 9  16555538.688    86999943.050       -1102.171          52.000    16555535.186    67792148.982        -858.843          49.000  
R 9  16174807.722    86372570.667       -3123.688          52.000    16174807.143    67178664.340       -2429.536          52.000  
R11  19292568.380   103093641.822        2757.796          48.000    19292571.089    80183962.925        2144.809          44.000  
R 8  15696730.302    84055280.205       -1275.565          51.000    15696728.443    65376321.330        -992.185          49.000  
G30  20874722.292   109697406.547        2266.683          37.000    20874721.113    85478450.929        1766.277          38.000  
R 1  17403494.414    93031653.198        2078.132          48.000    17403496.275    72357959.308        1616.039          44.000  
> 2020  1  1 22 20  4.9880000  0  8                     
G27  19568242.259   102831810.768        1601.623          43.000    19568239.499    80128673.976        1248.092          43.000  
G 7  18355712.106    96459918.289        1288.156          50.000    18355706.993    75163553.056        1003.581          46.000  
G 9  16555748.566    87001045.671       -1102.704          52.000    16555745.042    67793008.169        -859.340          49.000  
R 9  16175392.695    86375694.754       -3124.094          52.000    16175392.197    67181094.182       -2429.814          52.000  
R11  19292052.340   103090884.213        2757.861          48.000    19292055.113    80181818.114        2144.904          44.000  
R 8  15696968.612    84056556.433       -1276.357          51.000    15696966.862    65377313.948        -992.822          49.000  
G30  20874291.087   109695140.106        2266.600          37.000    20874289.809    85476684.852        1766.387          38.000  
R 1  17403105.761    93029575.458        2077.750          48.000    17403107.543    72356343.282        1616.036          44.000  
> 2020  1  1 22 20  5.9880000  0  8                     
G27  19567937.466   102830209.319        1601.305          43.000    19567934.779    80127426.105        1247.591          43.000  
G 7  18355467.064    96458630.320        1287.863          50.000    18355461.900    75162549.439        1003.514          46.000  
G 9  16555958.488    87002148.640       -1103.099          52.000    16555954.855    67793867.616        -859.527          49.000  
R 9  16175977.805    86378819.123       -3124.634          52.000    16175977.208    67183524.256       -2430.272          52.000  
R11  19291536.326   103088126.621        2757.524          48.000    19291539.163    80179673.309        2144.983          44.000  
R 8  15697207.031    84057833.322       -1277.257          51.000    15697205.285    65378307.082        -993.456          49.000  
G30  20873859.793   109692873.564        2265.841          37.000    20873858.418    85474918.714        1765.815          38.000  
R 1  17402717.120    93027498.084        2077.025          48.000    17402719.041    72354727.535        1615.514          44.000  
